site,latitude,longitude
"New York, NY",40.7127753,-74.0059728
"East Rutherford, NJ",40.833989,-74.0970865
Madison Square Garden,40.7505045,-73.9934387
"Atlanta, GA",33.7489954,-84.3879824
"Greensboro, NC",36.0726354,-79.7919754
"Boston, MA",42.3600825,-71.0588801
"Chicago, IL",41.8781136,-87.6297982
"Jacksonville, FL",30.3321838,-81.655651
"Houston, TX",29.7604267,-95.3698028
"Lucas Oil, Indianapolis",39.7601007,-86.1638877
"United Center     Chicago, IL",41.8806908,-87.6741759
"Madison Square Garden, New York, NY",40.7505045,-73.9934387
"Verizon Center, Washington, DC",38.8981251,-77.0208804
"Providence, R.I. (Dunkin' Donuts Center)",41.8236281,-71.4179556
"Anaheim, CA",33.8365932,-117.9143012
"New York, NY (Madison Square Garden)",40.7505045,-73.9934387
MOHEGAN SUN ARENA,41.4911501,-72.0897019
"T-Mobile Arena (Las Vegas, Nev.)",36.1028767,-115.1784324
"Greensboro, N.C. - Greensboro Coliseum",36.058682,-79.826131
"Barclays Center (Brooklyn, N.Y.)",40.6827836,-73.9758246
"Bon Secours Wellness Arena,Greenville SC",34.8526055,-82.3915301
"Kansas City, MO",39.0997265,-94.5785667
"Portland, OR",45.5230622,-122.6764815
"Charlotte, NC",35.2270869,-80.8431267
"Maui, HI",20.7983626,-156.3319253
"Wells Fargo Center, Phily, PA",39.9012015,-75.1719795
"Nassau, Bahamas",25.0479835,-77.355413
"Indianapolis, IN",39.768403,-86.158068
"Raleigh, NC",35.7795897,-78.6381787
"Bankers Life Fieldhouse-Indianapolis, IN",39.7639301,-86.1554641
"Brooklyn, N.Y. (Barclays Center)",40.6827836,-73.9758246
Greensboro Coliseum,36.058682,-79.826131
"Time Warner Cable Arena (Charlotte,N.C.)",35.2251426,-80.8392351
"Houston, Texas (NRG Stadium)",29.6847219,-95.4107074
"Lucas Oil Stadium, Indianapolis, IN",39.7601007,-86.1638877
"Oakland, CA",37.8043637,-122.2711137
"Chattanooga, TN",35.0456297,-85.3096801
"Corpus Christi, TX",27.8005828,-97.396381
"Odessa, TX",31.8456816,-102.3676431
"Las Vegas, NV",36.1699412,-115.1398296
"San Angelo, TX",31.4637723,-100.4370375
"Towson, MD",39.4014955,-76.6019125
"The Orleans Arena (Las Vegas, NV)",36.1058151,-115.2022567
"Stephenville, TX",32.2206958,-98.2022633
"Durango, CO (Whalen Gymnasium)",37.2774,-107.8686611
"Dallas, TX",32.7766642,-96.7969879
"Canyon, TX",34.9803342,-101.9188024
"Helena, MT",46.5883707,-112.0245054
"Denver, CO",39.7392358,-104.990251
"Denver, CO (Auraria Event Center)",39.7448696,-105.0039674
"Queens, N.Y. - Fitzgerald Gymnasium",40.7381681,-73.8195239
"Pleasantville, NY (Goldstein Fit. Ctr.)",41.1295275,-73.8097412
"Rockville Centre, NY",40.6587138,-73.6412406
"Caldwell, NJ",40.8398218,-74.2765366
Quealy Gymnasium -,40.6869154,-73.6254975
"Waltham, MA",42.3764852,-71.2356113
"Worcester, MA",42.2625932,-71.8022934
"Bridgeport, CT",41.1865478,-73.1951767
"Kenosha, Wis./Tarble Arena",42.6213907,-87.8223193
"Meadville, Pa. - David V. Wise Center",41.649349,-80.1449494
"Hershey Hall, Angola, Ind.",41.6308497,-85.0122024
"Ursprung Gymnasium; Berea, Ohio",41.3719903,-81.847562
"Cresson, PA",40.4597938,-78.5916837
"Defiance, OH",41.2844933,-84.3557802
"Grand Rapids, MI",42.9633599,-85.6680863
"Chester, PA",39.849557,-75.3557457
"Williamsport, PA",41.2411897,-77.0010786
"Wooster, OH",40.8050565,-81.935143
"Meadville, PA",41.6414438,-80.1514484
"Alliance, OH",40.9153362,-81.1059309
"Chester, Pa. (Schwartz Center)",39.866217,-75.3519669
"Alliance, Ohio - The MAAC",40.9023693,-81.1115052
"Las Vegas, Nev. (Thomas & Mack)",36.1049006,-115.1441925
"Spokane, WA",47.6587802,-117.4260465
"Santa Clara, CA",37.3541079,-121.9552356
"Charleston, SC",32.7764749,-79.9310512
"Lexington, VA",37.7840208,-79.4428157
M.A.C. - Center,32.731921,-97.117432
"South Point Arena (Las Vegas, NV)",36.0107111,-115.1782011
"Las Vegas, NV - South Point Arena",36.0107111,-115.1782011
"Cleveland, Ohio (Quicken",41.4964797,-81.6882129
"Cleveland, Ohio (Quicken Loans Arena)",41.4964797,-81.6882129
"Savannah, Ga. - Savannah Civic Center",32.0767215,-81.0969501
"Don Haskins Center (El Paso, Texas)",31.777715,-106.505605
"Hackensack, NJ",40.8859325,-74.0434736
"Cleveland, OH",41.49932,-81.6943605
"Daytona Beach, FL",29.2108147,-81.0228331
"Valparaiso, IN",41.4730948,-87.0611412
"San Juan, PR",18.4655394,-66.1057355
"Auburn Hills, MI",42.6875323,-83.2341028
"Honolulu, HI",21.3069444,-157.8583333
"Charleston, S.C. (TD Arena)",32.7854388,-79.9343716
"TD Bank Arena / Charleston, S.C.",32.7854388,-79.9343716
"Saint Leo, Fla. -- Bowman Center",28.3382082,-82.2578413
"Homewood, Ala.",33.4717732,-86.8008228
"Florence, Alabama",34.79981,-87.677251
"Evansville, IN (Ford Cent",37.9721356,-87.5678588
"Evansville, IN",37.9715592,-87.5710898
"Florence, AL",34.79981,-87.677251
"Searcy, AR",35.2468204,-91.7336846
"Southaven, MS",34.9918587,-90.0022958
"Pensacola, FL",30.421309,-87.2169149
"Russellville, AR",35.2784173,-93.1337856
"Valdosta, GA",30.8327022,-83.2784851
"Springfield, MA",42.1014831,-72.589811
"Salisbury, NC",35.6709727,-80.4742261
"Niceville, FL",30.5168639,-86.482172
"Highland Heights, KY",39.0331169,-84.4518854
"Moon Township, PA",40.5169767,-80.2213477
"Birmingham, AL",33.5206608,-86.80249
"Lakeland, FL",28.0394654,-81.9498042
"Lakeland, FL (Jenkins Field House)",28.0313288,-81.9449165
"HP Field House (Lake Buena Vista, Fla.)",28.3373061,-81.5572343
"Lake Buena Vista, Fla./HP Field House",28.3373061,-81.5572343
"HP Field House (Lake Buena Vista, Fla,)",28.3373061,-81.5572343
"2016 SEC Men's Tournament-Nashville, TN",36.1591736,-86.7784959
"MGM Grand Garden Arena (Las Vegas, NV)",36.104313,-115.1685048
"Huntsville, Ala.",34.7303688,-86.5861037
"Tampa, FL",27.950575,-82.4571776
"Lake Buena Vista, FL",28.3936186,-81.5386842
"Mobile, AL",30.6953657,-88.0398912
"Nashville, TN",36.1626638,-86.7816016
"St. Thomas, V.I.",18.3380965,-64.8940946
"Oklahoma City, OK",35.4675602,-97.5164276
"New Orleans, LA",29.9510658,-90.0715323
"Kansas City, Mo. (Sprint Center)",39.0972997,-94.5799392
"Kansas City, Mo./Sprint Center",39.0972997,-94.5799392
SEC Men's Basketball Tourney - Nashville,36.1591736,-86.7784959
"Houston, Texas (Toyota Center)",29.7507604,-95.3621005
Von Braun Center,34.7266595,-86.5902411
"Bossier City, LA",32.5159852,-93.7321228
"Garland, TX",32.912624,-96.6388833
"Huntsville, AL",34.7303688,-86.5861037
Northwest Florida State College,30.5394163,-86.475644
"Dayton, OH",39.7589478,-84.1916069
"Prescott, AZ",34.5400242,-112.4685025
"Nacogdoches, TX",31.6035129,-94.6554874
"Salt Lake City, Utah (Huntsman Center)",40.762049,-111.8387829
"Carson, CA",33.8316745,-118.281693
"Fairbanks, Alaska",64.8377778,-147.7163888
"Fairbanks,Alaska (Patty Center)",64.8565018,-147.8312521
"Marcus Pavilion - Lacey, WA",47.0382122,-122.8173481
"Honolulu, HI (Moanalua HS)",21.347123,-157.9003599
"Fairbanks, AK",64.8377778,-147.7163888
"Ellensburg, WA",46.9965144,-120.5478474
"Lacey, WA",47.0342629,-122.8231915
"Bellingham, WA",48.7519112,-122.4786854
"Rohnert Park, CA - The Wolves' Den",38.3412859,-122.6723099
"Alterowitz Gymnasium; Billings, MT",45.7973975,-108.5178669
"Alaska Airlines Ctr - Anchorage, AK",61.1887817,-149.8151705
Alterowitz Gymnasium,45.7968435,-108.5220124
"Alaska Airlines Center - Anchorage, AK",61.1887817,-149.8151705
"Bellingham, WA (Whatcom Pavilion)",48.7946887,-122.4927431
"Owensboro, KY",37.7719074,-87.1111676
"Anchorage, AK",61.2180556,-149.9002778
"Chico, CA",39.7284944,-121.8374777
"Riverside, CA",33.9533487,-117.3961564
"Belmont, Calif. (Walter Gleason Gym)",37.5182754,-122.2843243
"West Hartford, CT",41.7620842,-72.7420151
"Detroit, MI",42.331427,-83.0457538
"Syracuse, NY",43.0481221,-76.1474244
"Fairfax, VA",38.8462236,-77.3063733
"Uncasville, CT",41.4316905,-72.1100945
"Philadelphia, PA",39.9525839,-75.1652215
"Orlando, FL",28.5383355,-81.3792365
"Columbus, Ohio (Nationwide Arena)",39.9692127,-83.0060593
"University Park, Ill. | GSU Gymnasium",33.753068,-84.3852819
"Birmingham, Ala. (Bill Harris Arena)",33.4947227,-86.8741364
"Fort Valley, GA (HPE Complex)",32.5329433,-83.8978028
"Atlanta, Ga. | L.S. Epps Gymnasium",33.7515658,-84.4112315
"Bill Harris Arena, Birmingham, Ala.",33.4947227,-86.8741364
"Melbourne, FL",28.0836269,-80.6081089
"Augusta, GA",33.4734978,-82.0105148
"Providence, RI",41.8239891,-71.4128343
"Sports Center; Galloway, NJ",39.4902894,-74.5314967
Harrington Center,39.0951693,-84.6404192
"Defiance, Ohio",41.2844933,-84.3557802
"Hope College, Holland MI",42.7871797,-86.1023574
"Greensboro, NC - Ragan-Brown Field House",36.0896182,-79.8894318
"Gambier, OH",40.3756194,-82.3971038
"Phoenix, AZ",33.4483771,-112.0740373
"Gwinn, MI",46.2810556,-87.4409718
"Westerville, OH",40.1261743,-82.9290696
"Greencastle, IN",39.6444898,-86.8647316
Harrington Center (MSJ),39.0951693,-84.6404192
"Harrington Center (MSJ) Cincinnati, OH",39.0951693,-84.6404192
"Whittier, CA (Graham Athletic Center)",33.9757837,-118.0257321
"Memorial Hall -- Allentown, Pa.",40.5998127,-75.5092006
"Hampden-Sydney, Va - Fleet Gymnasium",37.2403758,-78.4610298
"Owings Mills, Md. - Owings Mills Gym",39.4106548,-76.7718551
"Owings Mills, Md.",39.4195499,-76.7802528
"Coliseo Roberto Clemente, San Juan, PR",18.4158296,-66.0755353
Mario quijote morales,18.3596985,-66.1146283
"Salisbury, MD",38.3606736,-75.5993692
"Wilkes-Barre, PA",41.2459149,-75.8813075
"Rochester, NY",43.16103,-77.6109219
"Lancaster, PA",40.0378755,-76.3055144
"Center Valley, PA",40.5294058,-75.3936935
"Bethlehem, PA",40.6259316,-75.3704579
"San Juan, P.R.",18.4655394,-66.1057355
"Glenside, Pa. - Alumnu Gymnasium",40.2788285,-74.7354358
"Memphis, Tenn.",35.1495343,-90.0489801
Toyota Center,29.7507604,-95.3621005
"Baton Rouge, LA",30.4582829,-91.1403196
"Albany, NY",42.6525793,-73.7562317
"Fort Myers, FL",26.640628,-81.8723084
"El Paso, TX",31.7618778,-106.4850217
"Scheels Arena (Fargo, ND)",46.8355474,-96.8755498
"El Paso, Texas (Don Haskins Center)",31.777715,-106.505605
"Toyota Center, Houston, Texas",29.7507604,-95.3621005
"Detroit, Mich. (Matthaei)",42.3550004,-83.0761689
"Owensboro, KY (Sportscenter)",37.7626977,-87.1262181
"Charleston, WV",38.3498195,-81.6326234
"Salem, WV",39.2828653,-80.5589856
"Indiana, PA",40.6214551,-79.1525349
"Erie, PA",42.1292241,-80.085059
"Callan Athletic Center; Cedarville, OH",39.7512544,-83.8133913
"Dallas, PA",41.3361911,-75.9632546
"Reading, PA/Bollman Center",40.3627229,-75.9119545
"Rochester, NY - Louis Alexander Palestra",43.1305531,-77.6260033
"Thousand Oaks, CA (Gilbert Arena)",34.226017,-118.8781091
"Ithaca, NY",42.4439614,-76.5018807
"Huntingdon, PA",40.4847959,-78.0102813
"Pittsford, NY",43.0789942,-77.5275463
"Carlisle, PA",40.2010241,-77.2002745
"St. Davids, PA",40.0409428,-75.3785234
"Houghton, NY",42.4233981,-78.1572319
"Washington, D.C. - Field House",38.9058315,-76.9925728
"Pittsford, NY - Manning ' Napier Gym",43.042292,-77.4567575
"Westmont, CA",33.9414035,-118.3022963
"Lexington, KY",38.0405837,-84.5037164
"Bluffton, OH",40.8953301,-83.8888288
"Menomonie, WI",44.8755183,-91.9193422
"Chicago, Ill.",41.8781136,-87.6297982
"Menomonie, Wis.  Johnson Fieldhouse",44.8695479,-91.9277882
"Las Vegas, Nev. (South Point Arena)",36.0107111,-115.1782011
"Colorado Springs, CO (Reid Arena)",38.846594,-104.824394
"Fort Lauderdale, FL",26.1224386,-80.1373174
"Kent, OH",41.1536674,-81.3578859
"Tulsa, OK",36.1539816,-95.992775
"North Little Rock, AR",34.769536,-92.2670941
"Memphis, TN",35.1495343,-90.0489801
"South Padre Island, TX",26.1118401,-97.1681257
"Atlantis, Paradise Island, Bahamas",25.084653,-77.32349
"Paradise Island, Bahamas (Atlantis)",25.084653,-77.32349
"Legacy Arena (Birmingham, Ala.)",33.5239475,-86.8127501
"Legacy Arena - Birmingham, Ala.",33.5239475,-86.8127501
"KFC Yum! Center, Louisville, KY",38.2577834,-85.7538323
"Louisville, Ky. (KFC Yum! Center)",38.2577834,-85.7538323
"Birmingham, Ala. (Legacy Arena)",33.5239475,-86.8127501
"Sprint Center (Kansas City, Mo.)",39.0972997,-94.5799392
"Birmingham, Ala. - Legacy Arena",33.5239475,-86.8127501
"Birmingham, Ala. - Legacy",33.4553127,-86.6303559
"New Wilmington, PA",41.1222812,-80.3328428
"Danville, KY",37.6456329,-84.7721702
"Reading, PA",40.3356483,-75.9268747
"Wayne, NJ",40.9253725,-74.2765441
"St. Mary's City, MD",38.1872404,-76.4343173
"Annville, PA",40.3295359,-76.5152443
"Arlington, VA",38.8816208,-77.0909809
"Pittsburgh, PA",40.4406248,-79.9958864
"Hackettstown, NJ",40.8539879,-74.8290555
"Gettysburg, PA",39.8309293,-77.2310955
"Ashland, VA",37.7590318,-77.4799837
"Grantham, PA (Brubaker Auditorium)",40.1582572,-76.9894963
"Grantham, PA",40.1560452,-76.994249
"Erie, Pa.",42.1292241,-80.085059
"Manchester, IN",39.1517216,-85.012178
"Livonia, MI",42.36837,-83.3527097
"Olivet, MI",42.4414273,-84.9241542
"Louisville, KY",38.2526647,-85.7584557
"Wheaton, IL",41.8661403,-88.1070127
"Kenosha, WI",42.5847425,-87.8211854
"De Pere, WI",44.4488805,-88.0603806
"Grand Rapids, Mich. (Van Noord Arena)",42.9333682,-85.5886593
The Palace of Auburn Hills,42.696885,-83.2457929
"Pam Evans Smith Arena; Springfield, Ohio",39.9365496,-83.8139029
"Branch Rickey Arena; Delaware, Ohio, USA",40.2949217,-83.0664069
"Trinity University, Sams Gymnasium",29.4595228,-98.4835938
"Schuldes Sports Center - De Pere, Wis.",44.4421287,-88.0684923
"Hope College, Holland, MI",42.7871797,-86.1023574
"University Hts., OH - DeCarlo Center",41.4911523,-81.5281758
"Lisle, Ill. - Rice Center",41.7804977,-88.0961273
"Salem, Ore. - Cone Field House",44.9347342,-123.0290939
"Defiance, Ohio  --  Weaner Center",41.2966243,-84.3583836
"MassMutual Center, --",42.102002,-72.5871329
"Brookville, NY",40.8131553,-73.5673482
"Pratt Recreation Center - Brookville, NY",40.816716,-73.5912497
"Indiana, PA (Kovalchick Complex)",40.6124254,-79.159922
"Bridgeport, Conn.-Hubbell Gym",41.1640453,-73.188094
"Washington, DC",38.9071923,-77.0368707
"Milwaukee, WI",43.0389025,-87.9064736
"Thomas Assembly Center (Ruston, La.)",32.5319955,-92.658733
"Thomas Assembly Center - Ruston, La.",32.5319955,-92.658733
"Chicopee, MA",42.1487043,-72.6078672
"Williamstown, MA",42.7120196,-73.2036898
"Westfield, MA",42.1250929,-72.749538
"Salem, VA",37.2934681,-80.0547626
"Hartford, Conn.",41.7637111,-72.6850932
"Pittsford, NY - Manning & Napier Gym",43.042292,-77.4567575
"Medford, Mass.",42.4184296,-71.1061639
"Salem Civic Center - Salem, VA",37.2854268,-80.0392938
"Mahwah, NJ - Bradley Center",41.0812077,-74.1776862
"Las Vegas, NM",35.5942137,-105.2227978
"Bartlesville, OK",36.7473114,-95.9808179
"Abilene, TX",32.4487364,-99.7331439
"San Antonio, TX",29.4241219,-98.4936282
"Clovis, NM",34.4047987,-103.2052272
"Weatherford, OK",35.5261633,-98.7075744
"Plano, TX",33.0198431,-96.6988856
"Allen, TX",33.1031744,-96.6705503
"Grand Junction, CO (Brownson Arena)",39.0808594,-108.5543371
"Stephenville, Texas",32.2206958,-98.2022633
"Bill Greehey Arena, San Antonio, Texas",29.451711,-98.5640921
"San Antonio, Texas (Bill Greehey Arena)",29.451711,-98.5640921
"SOUTH POINT ARENA  LAS VEGAS,NV",36.0107111,-115.1782011
"SOUTH POINT ARENA  LAS VEGAS, NV",36.0107111,-115.1782011
"Allen, TX (Allen Event Center)",33.1274319,-96.6546973
"Allen, Texas",33.1031744,-96.6705503
"Wichita Falls, Texas",33.9137085,-98.4933873
"South Point Arena, Las Vegas, NV",36.0107111,-115.1782011
"Las Vegas, NV (Doolittle Center)",36.1952818,-115.1554891
"Allen, Texas (Allen Event Center)",33.1274319,-96.6546973
"Allen, Texas (Allen Event",33.1274319,-96.6546973
"Nashua, NH",42.7653662,-71.467566
"Lewiston, ME",44.100351,-70.2147764
"Leicester, MA",42.245926,-71.9086843
"Middletown, CT",41.5623209,-72.6506488
"North Dartmouth, MA",41.640396,-70.9694555
"New London, Conn.",41.3556539,-72.0995209
"Middletown, Conn. (Silloway Gymnasium)",41.5566104,-72.6569041
Husson,44.8277943,-68.7936927
"Babson Park, Mass.",42.3027573,-71.2701651
"Babson Park, MA (Staake Gymnasium)",42.2993708,-71.2659951
"Cancun, MEX",21.161908,-86.8515279
"Asheville, NC",35.5950581,-82.5514869
"Nashville, Tenn. - Municipal Auditorium",36.1674077,-86.7817328
"Lakefront Arena - New Orleans, La.",30.0301443,-90.0505073
"Los Angeles, CA",34.0522342,-118.2436849
"Fullerton, CA",33.8703645,-117.9242123
"Kansas City, Mo. / Sprint Center",39.0972997,-94.5799392
"MGM Grand Garden Arena (Las Vegas, Nev.)",36.104313,-115.1685048
"Orlando, Fla. (HP Field House)",28.3373061,-81.5572343
"Salt Lake City, UT",40.7607793,-111.8910474
MGS,26.8420949,80.929954
"Seattle, WA",47.6062095,-122.3320708
"San Diego, CA",32.715738,-117.1610838
"Lahaina Civic Center, Maui, Hawaii",20.9050121,-156.6837898
"Maui, Hawaii - Lahaina Civic Center",20.9050121,-156.6837898
"Portland, Ore. (Moda Center)",45.5315651,-122.6668423
"Los Angeles, CA (Staples Center)",34.0430175,-118.2672541
"Fullerton, Calif. (Titan Gym)",33.883022,-117.8858875
"Anaheim, Calif. (Honda Center)",33.8078476,-117.8764687
"MGM Grand Garden Arena, Las Vegas, Nev.",36.104313,-115.1685048
"Stan Sheriff Center; Honolulu, HI",21.2942882,-157.8189039
"Orleans Arena, Las Vegas, NV",36.1058151,-115.2022567
"Los Angeles, Calif. (Staples Center)",34.0430175,-118.2672541
"Toyota Center (Houston, TX)",29.7507604,-95.3621005
"Salt Lake City, Utah (Vivint Arena)",40.7682681,-111.9010874
"SAP Center (San Jose, Calif.)",37.3327303,-121.9012363
"Greenville,MS",33.399661,-91.0377029
"Hot Springs, AR",34.5037004,-93.0551795
"Knoxville, TN",35.9606384,-83.9207392
"Springfield, MO",37.2089572,-93.2922989
"West Point, NY (Christl Arena)",41.3863864,-73.9656782
"St. Louis, MO",38.6270025,-90.1994042
"Little Rock, AR",34.7464809,-92.2895948
Jacksonville (Veterans Memorial Arena),30.325811,-81.645058
"Jacksonville, Fla.",30.3321838,-81.655651
"North Little Rock, Ark. (Verizon Arena)",34.7550895,-92.2643235
"Puerto Vallarta, MEX",20.653407,-105.2253316
"Las Vegas,NV (South Point Hotel)",36.0112258,-115.1752403
"Las Vegas,NV (South Point Arena)",36.0107111,-115.1782011
"New Orleans, La./Lakefront Arena",30.0301443,-90.0505073
"Las Vegas, NV Orleans Arena",36.1058151,-115.2022567
Lakefront Arena,30.0301443,-90.0505073
"Pepsi Center, Denver, Colo.",39.74866,-105.00771
"Cedar Park, Texas (HEB Ce",30.522276,-97.828349
"Cedar Park, Texas (HEB Center)",30.5413598,-97.8202272
"Saint Leo, FL",28.3372251,-82.2584191
"Columbus, GA",32.4609764,-84.9877094
"St. Petersburg, FL",27.7676008,-82.6402915
"Valdosta, Ga.",30.8327022,-83.2784851
"St. Augustine, Fla. (Flagler Gym)",29.8912272,-81.3148844
Levine Center-Curry Arena,35.1885164,-80.83279
"Greenwood, S.C.",34.1954001,-82.1617883
"Columbus, OH",39.9611755,-82.9987942
"Erie, Pa. (Hammermill Center)",42.1283957,-80.0861959
"Somers, WI (DeSimone Gymnasium)",42.6476245,-87.8549878
"Indianapolis, IN (Nicoson Hall)",39.7088663,-86.1319113
"Big Rapids, Mich.",43.6980782,-85.4836557
"Bridgeport,",41.1865478,-73.1951767
"West Palm Beach,",26.7153424,-80.0533746
"West Palm Beach, FL",26.7153424,-80.0533746
"Pleasantville, NY",41.1333371,-73.7924152
"Orangeburg, NY",41.0464858,-73.9495818
"Easton, MA",42.0245442,-71.1286594
"Manchester, NH",42.9956397,-71.4547891
"Philadelphia, Pa. (Gallagher Center)",40.023379,-75.1937303
"Easton, Mass. - Paula Sullivan Court",42.0590153,-71.0806276
"Daniel P. Nolan Gymnasium | Albany, N.Y.",42.6640994,-73.7856653
"Las Vegas, Nev. (MGM Grand Garden Arena)",36.104313,-115.1685048
"Nashville, Tenn. (Bridgestone Arena)",36.1591736,-86.7784959
"Stan Sheriff Center (Honolulu, O'ahu)",21.2942882,-157.8189039
"Hard Rock Hotel, Riviera Maya, Mexico",20.506925,-87.21539
"Riviera Maya, Mexico / Hard Rock Hotel",20.506925,-87.21539
"Uncasville, Conn. (Mohegan Sun Arena)",41.4911501,-72.0897019
"St. Bonifacius, MN",44.9055181,-93.7474636
"Lincoln, NE",40.8257625,-96.6851982
"Colorado Springs, CO",38.8338816,-104.8213634
"Scott Gym, Dickinson, N.D.",46.8823226,-102.7995721
"Coliseo Ruben Rodriguez, Bayamon, P.R.",18.3947963,-66.150924
COLISEO RUBEN RODRIGUEZ,18.3947963,-66.150924
"Aiken, SC",33.5604168,-81.7195533
"Greeneville, TN",36.1631574,-82.8309861
"Harrogate, TN",36.5823046,-83.6568579
"Columbus, Ga...Lumpkin Center",32.5044661,-84.9402125
"Wilson, N.C. (Wilson Gymnasium)",35.7368003,-77.9117497
Levine Center- Curry Arena,35.1885164,-80.83279
"Naperville, IL",41.7508391,-88.1535352
"Bloomington, IL",40.4842027,-88.9936873
"Platteville, WI",42.73416,-90.4784621
"Wisconsin Dells, WI",43.6274794,-89.7709579
"Whitewater, WI",42.8336205,-88.7323272
"Crestview Hills, Ky. - Connor Center",39.0210499,-84.5687111
"Salem Civic Center - Salem, Va.",37.2854268,-80.0392938
JustAGame Fieldhouse,43.6256886,-89.7762441
"Wisconsin Dells, Wis.",43.6274794,-89.7709579
"Whitewater, Wis. (Kachel Gymnasium)",42.8430878,-88.7462426
"DeVos Fieldhouse, Holland, MI",42.7887273,-86.0954824
"Hope College, DeVos Fieldhouse",42.7887273,-86.0954824
"Sioux Falls, SD",43.5445959,-96.7311034
"Mankato, MN",44.1635775,-93.9993996
"Monmouth, OR",44.8484524,-123.2339888
"Rochester, MN",44.0121221,-92.4801989
"Sioux Falls, SD (Sanford Pentagon)",43.5916282,-96.7548082
Sanford Pentagon,43.5916282,-96.7548082
"Sioux Falls, SD (Sanford Pentgaon)",43.5916282,-96.7548082
"Las Vegas, Nev.",36.1699412,-115.1398296
"Bayamon, PR (University of PR-Bayamon)",18.3705811,-66.1437571
"Frisco, Texas -- Dr Pepper Center",33.1004791,-96.819173
"Frisco, Texas (Dr. Pepper Arena)",33.1004791,-96.819173
"Frisco, Texas -- Dr Pepper Arena",33.1004791,-96.819173
"Weatherford, OK (Pioneer Cellular EC)",35.5258757,-98.706553
"Maryville, Mo. (Bearcat Arena)",40.3506406,-94.8858476
"Ottawa, KS",38.615768,-95.2686366
"Cedar Rapids, IA",41.9778795,-91.6656232
"Mount Vernon, IA",41.9219522,-91.4168371
"Kenosha, Wis. (Tarble Arena)",42.6213907,-87.8223193
"Dennie Bridges Court, IWU Shirk Center",40.4908892,-88.9906541
"Hoffman Estates, IL",42.0629915,-88.1227199
"Bowling Green, OH",41.3747744,-83.6513229
"Mount Pleasant, MI",43.5978075,-84.7675139
"Greeley, Colo. (Bank of Colorado Arena)",40.4022171,-104.7030436
"Nashville, Tenn. (Municipal Auditorium)",36.1674077,-86.7817328
"Wells Fargo Arena - Des Moines, Iowa",41.5926623,-93.6210651
"Millett Hall, Oxford, Ohio",39.5167527,-84.7345863
"Oxford, Ohio",39.5069974,-84.745231
"Bridgewater, VA",38.3820706,-78.976696
"Hampden-Sydney, VA",37.2423746,-78.4597173
"Newport News, VA",37.0870821,-76.4730122
"Fayetteville, NC",35.0526641,-78.8783585
"Maryville, TN",35.7564719,-83.9704593
"Batten Center/Virginia Beach, Va.",36.8684184,-76.1859527
"Bridgewater, Va. Nininger Hall",38.378879,-78.969386
"Winchester, Va. (Shingleton Gymnasium)",39.1660159,-78.1583388
"Swarthmore, Pa. (Tarble Pavilion)",39.900997,-75.3535776
"Hoboken, NJ",40.7439905,-74.0323626
"Medford, MA",42.4184296,-71.1061639
"Salem, MA",42.51954,-70.8967155
"Bristol, RI",41.6771101,-71.2662025
"Northfield, VT",44.1511723,-72.6564986
"Salem, Mass.",42.51954,-70.8967155
"Waltham, Mass. (Red Auerbach Arena)",42.364989,-71.258663
"Waltham, MA (Red Auerbach Arena)",42.364989,-71.258663
"Salem Civic Center: Salem, Va.",37.2854268,-80.0392938
"Crestveiw Hills, KY",39.0272829,-84.5849438
"Kissimmee, FL",28.2919557,-81.407571
"Buffalo, N.Y.",42.8864468,-78.8783689
"Defiance, Ohio -- Karl H. Weaner Center",41.2966243,-84.3583836
"Richmond, Ky. (McBrayer Arena)",37.7373512,-84.3012724
"Conway, SC",33.8360034,-79.0478143
"The HTC Center - Conway, S.C.",33.7980888,-79.0155722
"Buies Creek, NC (Pope Center/Gore Arena)",35.4078504,-78.7367719
"Ft. Lauderdale, FL",26.1224386,-80.1373174
"Boca Raton, FL",26.3683064,-80.1289321
"Miami, FL",25.7616798,-80.1917902
"Livingston, AL",32.5843025,-88.1872475
"Boca Raton, Fla.",26.3683064,-80.1289321
"Kissimmee, Fla.",28.2919557,-81.407571
"Silver Spurs Arena - Kissimmee, Fla.",28.2989399,-81.3689867
"Silver Spurs Arena, Kissimmee, Fla.",28.2989399,-81.3689867
"Frisco, TX -- Dr. Pepper Center",33.1004791,-96.819173
"Keene, NH",42.933692,-72.2781409
"Bangor, ME",44.8011821,-68.7778138
"Irvine, CA",33.6845673,-117.8265049
"Atlanta, GA - Woodruff PE Ctr.",33.7933119,-84.3258545
"Sports Center: Galloway, NJ",39.4902894,-74.5314967
"Waterville, ME",44.5520105,-69.6317121
"Waterville, Maine",44.5520105,-69.6317121
"Springfield, Mass.",42.1014831,-72.589811
"Worcester, MA --- Harrington Auditorium",42.2744595,-71.8096745
"Manhattan, NY (Sportsplex)",40.7480678,-74.0085356
"Albuquerque, NM",35.0853336,-106.6055534
"Arlington, TX",32.735687,-97.1080656
"Abrams Gym (Fort Hood, Texas)",31.1382094,-97.7773225
"Tulsa, Okla. (BOK Center)",36.152766,-95.996416
"Institute, WV",38.38377,-81.7657977
"Springfield, IL",39.7817213,-89.6501481
"Univ. Center, Mich. (O'Neill Arena)",43.5122069,-83.9577029
"Evansville, IN (PAC)",37.982493,-87.5679752
"St. Charles, MO (Family Arena)",38.7477679,-90.5092609
"Evansville, IN (Ford Center)",37.9721356,-87.5678588
"Evansville, Ind.",37.9715592,-87.5710898
"Riepma Arena - Midland, Mich.",43.6301146,-84.2744061
"Austin, TX",30.267153,-97.7430608
"Chicago, Ill. (Ratner Center)",41.794161,-87.6019229
"RDV Sportsplex, Orlando, Fla",28.6358513,-81.4000396
"RDV Sportsplex, Orlando, Florida",28.6358513,-81.4000396
"La Crosse, WI",43.8013556,-91.2395807
"Golden, CO",39.755543,-105.2210997
"Winona, MN",44.0553908,-91.6663523
"Wisconsin Dells, Wis. (JustAGame Field.)",43.6256886,-89.7762441
"Birmingham, Ala. - Bill Harris Arena",33.4947227,-86.8741364
"Birmingham, Ala.|Bill Harris Arena-SIAC",33.4947227,-86.8741364
"Fort Valley, GA",32.5537585,-83.8874084
"Charlotte, N.C. - Brayboy Gym",35.2433189,-80.8527215
Albany State University- ASU HPER Gym,31.5710738,-84.140176
"Albany, Georgia- ASU HPER Gymnasium",31.5710738,-84.140176
"Akron, Ohio",41.0814447,-81.5190053
"Owensboro, Ky. (Sportscenter)",37.7626977,-87.1262181
"Raleigh, NC -- C.C. Spaulding Gymnasium",35.771187,-78.6377146
"Philadelphia, Pa. (Campus Center)",40.0604897,-74.9863882
"Livingston, TN",36.3833961,-85.3230221
"Wenham, MA",42.604261,-70.8911612
"Baltimore, MD",39.2903848,-76.6121893
"Old Westbury, NY",40.7887113,-73.5995717
"Bronx, NY",40.8447819,-73.8648268
"Scranton, PA",41.408969,-75.6624122
"Crenshaw Gymnasium, Ashland, Va.",37.7629854,-77.4786146
"New York, NY - Nat Holman Gym (CCNY)",40.8200471,-73.9492724
"New York, NY (Nat Holman Gymnasium)",40.8200471,-73.9492724
"Newark, NJ (The Golden Dome Arena)",40.7395937,-74.1743626
"Buffalo, NY",42.8864468,-78.8783689
"West Liberty, WV",40.169794,-80.5936851
"University Heights, OH",41.4978306,-81.5373456
"Staten Island, NY",40.5795317,-74.1502007
"Springfield, OH",39.9242266,-83.8088171
"Ratner Center in Chicago, Ill.",41.794161,-87.6019229
"Crenshaw Gym, Ashland, Va.",37.7629854,-77.4786146
Horsburgh Gymnasium,41.5043413,-81.6083838
"Erie, Pa., Junker Center",42.1201,-79.9781785
"St. Paul, MN",44.9537029,-93.0899578
"Arden Hills, MN",45.0502435,-93.1566112
"Lee Pfund Classic - Wheaton, Ill.",41.86833,-88.099622
Ocean Center,29.22841,-81.011154
"Ocean Center, Daytona Be",29.22841,-81.011154
"Winston-Salem, NC",36.0998596,-80.244216
"Ocean Center, Daytona Beach, FL",29.22841,-81.011154
"Norfolk, VA",36.8507689,-76.2858726
"Greeley, CO",40.4233142,-104.7091322
"West Long Branch, N.J. | the MAC",40.2793079,-74.0077838
"Scope Arena - Norfolk, Va.",36.8532544,-76.286878
The Orleans Arena,36.1058151,-115.2022567
"The Scope - Norfolk, VA",36.8532544,-76.286878
"Birmingham, Ala. (Pete Hanna Center)",33.4638283,-86.7971667
"Cullowhee, NC",35.3137111,-83.1765333
"Des Moines, IA",41.6005448,-93.6091064
"Moraga, CA",37.8349263,-122.1296871
"Uncasville, Conn. - Mohegan Sun Arena",41.4911501,-72.0897019
"Fort Myers, FL (Alico Arena)",26.4710622,-81.7646659
"Tyler, TX",32.3512601,-95.3010624
"Jacksonville, IL",39.733936,-90.2290098
"Colorado Springs, Colo.",38.8338816,-104.8213634
"Kolf Sports Center - Oshkosh, Wis.",44.0243314,-88.5522143
"Sewanee, Tenn. (Juhan Gym",35.20518,-85.9176605
"Waukesha, WI",43.0116784,-88.2314813
"Lincoln, Neb. (Snyder Arena)",40.8387836,-96.6475961
"Johnstown, PA",40.3267407,-78.9219698
"Missoula, MT",46.8787176,-113.996586
"Reno, NV",39.5296329,-119.8138027
"Nampa, ID",43.5407172,-116.5634625
"CenturyLink Arena, Boise",43.614582,-116.204195
"Boise, ID",43.6187102,-116.2146068
"Los Angeles, CA (Gersten Pavilion)",33.967663,-118.4156096
"Boise, Idaho (CenturyLink Arena)",43.614582,-116.204195
"Las Vegas, Nev. (Thomas & Mack Center)",36.1049006,-115.1441925
"Charleston, S.C. - TD Arena",32.7854388,-79.9343716
"St. Thomas, VI",18.3380965,-64.8940946
"Brooklyn, NY",40.6781784,-73.9441579
"Boston, Mass. (TD Garden)",42.366198,-71.062146
"Coliseo Roberto Clemente (San Juan, PR)",18.4158296,-66.0755353
Coliseo Roberto Clemente,18.4158296,-66.0755353
"Brooklyn, N.Y. - Barclays Center",40.6827836,-73.9758246
"Barclays Center (Brooklyn, NY)",40.6827836,-73.9758246
"Kingston, RI",41.4803791,-71.5225598
"Willimantic, CT",41.7106543,-72.2081338
"Weston, MA",42.3667625,-71.3031132
"Radnor, PA",40.043912,-75.3754599
"Westfield, Mass. - Woodward Center",42.1279111,-72.7883109
"Bristol, R.I. (Campus Rec Center)",41.6512211,-71.2605076
"Bristol, R.I. (Campus Rec",41.6512211,-71.2605076
"Dartmouth, Mass. - Tripp Center",41.6238628,-71.0065889
"Shepherdstown, WV",39.4300996,-77.8041609
"Petersburg, VA",37.2279279,-77.4019267
"Fairmont, WV",39.4850848,-80.1425781
"Ettrick, VA",37.2401503,-77.4299836
"Manuel Rivero Hall - Lincoln Univ., PA",39.807212,-75.9273377
"Time Warner Cable Arena - Charlotte, NC",35.2251426,-80.8392351
"Fairmont, W.Va. -- Joe Retton Arena",39.4857867,-80.1630335
"Bojangles' Coliseum - Charlotte, NC",35.2048646,-80.7954415
"Spectrum Center - Charlotte, NC",35.2251426,-80.8392351
"Ann Arbor, MI",42.2808256,-83.7430378
"Alico Arena (Fort Myers, Fla.)",26.4710622,-81.7646659
"American Bank Ctr (Corpus Christi, TX)",27.808348,-97.393797
"Scottrade Center, St. Louis, Missouri",38.6268402,-90.2026783
TD Arena,32.7854388,-79.9343716
"Scottrade Center, St. Louis, MO",38.6268402,-90.2026783
"Germain Arena (Ft. Myers, Fla.)",26.4404742,-81.7788469
"Germain Arena (Estero, Fla.)",26.4404742,-81.7788469
"St. Louis, Mo./ Scottrade Center",38.6268402,-90.2026783
"Babson Park, MA",42.3027573,-71.2701651
"Babson Park, MA (Staake Gymnasium",42.2993708,-71.2659951
"Flushing, NY",40.7674987,-73.833079
"Garden City, NY",40.7267682,-73.6342954
"Springfield, Mass. | Butova Gymnasium",42.1411129,-72.5793229
"Harrisonburg, VA",38.4495688,-78.8689155
"Harrisonburg, Va. - Yoder Arena",38.4726203,-78.8773972
"Harrisonburg, Va. (Yoder Arena)",38.4726203,-78.8773972
"Daytona Beach, Fla. (Ocean Center)",29.22841,-81.011154
"New Paltz, NY",41.7475933,-74.0868095
"Selinsgrove, PA",40.7989735,-76.8621935
"Clinton, NY",43.0484029,-75.3785034
"Montclair, NJ",40.8259007,-74.2090053
"Galloway, NJ",39.4928235,-74.5596879
"Lancaster, PA (Mayser Center)",40.047869,-76.3185476
"Lancaster, Pa.",40.0378755,-76.3055144
"Coles Sports Center/Manhattan, NY",40.7285009,-73.9931061
"Daytona Beach, Fla.",29.2108147,-81.0228331
"Daytona Beach, Fla. - Ocean Center",29.22841,-81.011154
"Northfield, Vt. (Andrews Hall)",44.1412397,-72.6608808
"Northfield, Vt.",44.1511723,-72.6564986
"Greensboro, N.C.",36.0726354,-79.7919754
"Glens Falls, NY",43.3095164,-73.6440058
"Prescott Valley, AZ",34.6100243,-112.315721
EnergySolutions Arena,40.7682681,-111.9010874
"Salt Lake City, EnergySolutions Arena",40.7682681,-111.9010874
"Orleans Arena (Las Vegas, Nev.)",36.1058151,-115.2022567
"The Orleans Arena (Las Vegas,NV)",36.1058151,-115.2022567
"University of Dayton Arena (Dayton, OH)",39.7356112,-84.199716
"Salt Lake City, Vivint Smart Home Arena",40.7682681,-111.9010874
"United Center, Chicago, IL",41.8806908,-87.6741759
Orleans Arena,36.1058151,-115.2022567
"Oswego, NY",43.4553461,-76.5104973
"Geneseo, NY",42.795896,-77.816947
"Geneva, NY",42.8679836,-76.985557
"Farmingdale, NY",40.7325997,-73.4454009
"Henrietta, NY",43.0592452,-77.6128039
"Arlington, Va.",38.8816208,-77.0909809
"Louis Alexander Palestra - Rochester, NY",43.1305531,-77.6260033
"Geneva, N.Y.: Bristol Gym",42.8570634,-76.9928982
"Rochester, N.Y. (Voller Ath. Center)",43.1261506,-77.7975018
"Daytona Beach, Fla. - Oce",29.16434,-80.999622
"Plattsburgh, NY (Memorial Hall)",44.6930949,-73.4648711
"Oswego, N.Y. - Max Ziel Gymnasium",43.4462942,-76.535533
"Purchase, NY",41.0400135,-73.7144477
"Newark, NJ",40.735657,-74.1723667
"Purchase, N.Y. - Kennedy Gymnasium",41.0334846,-73.7165649
"Cleveland, Ohio - Horsburgh Gymnasium",41.5043413,-81.6083838
"New York City, NY",40.7127753,-74.0059728
"Newport News, Va. (Freeman Center)",37.0648199,-76.492459
"Montclair, NJ - Panzer Athletic Center",40.8585038,-74.2000441
"Mohegan Sun Arena, Uncasville, CT",41.4911501,-72.0897019
"Reese Court - Cheney, Washington",47.4913724,-117.5893925
"Niagara University, NY",43.1365152,-79.0353197
"Toledo, OH (Savage Arena)",41.6601653,-83.6097317
"KeyBank Center (Buffalo, N.Y.)",42.875004,-78.876521
"Eau Claire, WI",44.811349,-91.4984941
"Oshkosh, WI",44.0247062,-88.5426136
"Sherman Gymnasium (Jacksonville, Ill.)",39.7298657,-90.2476515
"Reading, Pa. (Bollman Center)",40.3627229,-75.9119545
"Tampa Prep; Tampa, Fla.",27.9512401,-82.4670466
"Sherwood Center; Walla Walla, Wash.",46.0711676,-118.3310217
"Mahwah, NJ",41.0886216,-74.1435843
"Palestra, Rochester, NY ",43.1305531,-77.6260033
"Kahl Gym, Albany, NY",42.6514661,-73.7825767
"Bronx, NY (The APEX)",40.8860698,-73.8283771
"Miami, Fla.",25.7616798,-80.1917902
"Mohegan Sun Arena (Uncasville, CT)",41.4911501,-72.0897019
"San Jose, CA",37.3382082,-121.8863286
"Conseco, Indianapolis",39.7648793,-86.1551714
"Bankers Life, Indy",39.7639301,-86.1554641
"Pittsburgh, Pa. - CONSOL Energy Center",40.4395932,-79.9893378
"Indianapolis, Ind. | Bankers Life FHouse",39.8915991,-86.0545427
"Bankers Life Fieldhouse-Indianapolis,Ind",39.7639301,-86.1554641
"Milwaukee, Wis. (BMO Harris Bradley Ctr)",43.0436456,-87.9172433
"Aston, PA",39.8648194,-75.4257325
"Middlebury, VT",44.0153371,-73.16734
"Virginia Beach, VA",36.8529263,-75.977985
"Owings Mills, MD",39.4195499,-76.7802528
"Salisbury, Md. / Maggs PAC",38.345073,-75.6046968
"Bethlehem, Pa. - Johnston Hall",40.6304565,-75.3844871
"Middlebury, Vt. - Pepin Gymnasium",44.0041812,-73.177856
"Thousand Oaks, CA",34.1705609,-118.8375937
"Redlands, CA",34.0555693,-117.1825381
"Claremont, CA",34.0966764,-117.7197785
"Santa Cruz, CA",36.9741171,-122.0307963
"Eugene, OR",44.0520691,-123.0867536
"Santa Clara, Calif.",37.3541079,-121.9552356
"KEY ARENA - SEATTLE, WA",47.6221,-122.353988
"DeKalb, Ill. (NIU Convocation Center)",41.9352122,-88.7856583
"Arcata, CA",40.8665166,-124.0828396
"Hayward, CA",37.6688205,-122.0807964
"La Jolla, CA",32.8328112,-117.2712717
"Belmont, CA",37.5202145,-122.2758008
"Ontario, CA",34.0633443,-117.6508876
"Azusa, CA",34.1336186,-117.9075627
"San Bernardino, CA",34.1083449,-117.2897652
"Stockton, CA",37.9577016,-121.2907796
"Stockton, Calif. (Stockton Arena)",37.955989,-121.296031
"Azusa, Calif.",34.1336186,-117.9075627
"Azusa, Calif. -- Felix Event Center",34.1350678,-117.8952594
"Stockton, CA (Stockton Arena)",37.955989,-121.296031
"Monmouth, Ore. (New PE Building)",44.8523702,-123.2413673
"La Jolla, CA (RIMAC Arena)",32.8852757,-117.2391823
"Riverside, CA (Van Dyne Gym)",33.9264458,-117.4266245
"Riverside, Calif. (Van Dyne Gym)",33.9264458,-117.4266245
"Costa Mesa, Calif.",33.6412156,-117.9188221
"Costa Mesa, CA",33.6412156,-117.9188221
"Santa Barbara, CA",34.4208305,-119.6981901
"Pomona, Calif.",34.055103,-117.7499909
"Las Vegas, NV ( soutdh Poinbt Arena)",36.0107111,-115.1782011
"Las Vegas, NV  (South Point Arena)",36.0107111,-115.1782011
"Stockton Arena (Stockton, Calif.)",37.955989,-121.296031
"Seaside, Calif.",36.6149217,-121.822098
"Rohnert Park, Calif.",38.3396367,-122.7010984
"Kent, WA",47.3809335,-122.2348432
"Fresno, CA",36.7468422,-119.7725868
"Honolulu, O'ahu - Stan Sheriff Center",21.2942882,-157.8189039
"Honolulu, HI (Stan Sheriff Center)",21.2942882,-157.8189039
"Logan, Utah (Dee Glen Smith Spectrum)",41.7476092,-111.8119572
"Las Vegas, NV (Orleans Arena)",36.1058151,-115.2022567
"Las Vegas, NC (Orleans Arena)",36.1058151,-115.2022567
"Las Vegas, Nev. (Orleans Arena)",36.1058151,-115.2022567
Chesapeake Arena-Oklahoma City,35.4634175,-97.5151176
Wright State Nutter Center,39.782096,-84.052137
"Dayton, OH (Nutter Center)",39.782096,-84.052137
Las Vegas (Orleans Arena),36.1058151,-115.2022567
"Hayward, Calif.",37.6688205,-122.0807964
"Monmouth, OR (New PE Building)",44.8523702,-123.2413673
"San Marcos, CA (The Sports Center)",32.8268769,-117.1610447
"Augusta, Ga. - Christenberry Fieldhouse",33.4719883,-82.0593027
"Logan, UT",41.7369803,-111.8338359
"Lafayette, LA",30.2240897,-92.0198427
"Spartanburg, S.C. - Hodge Center",34.9957778,-81.9688331
"San Rafael, CA",37.9735346,-122.5310874
"Rohnert Park, CA",38.3396367,-122.7010984
"San Rafael, Calif.",37.9735346,-122.5310874
"Chico, Calif. (Acker Gymnasium)",39.729899,-121.8497673
"Titan Gym (Fullerton, Calif.)",33.883022,-117.8858875
"Honda center (Anaheim, Calif.)",33.8078476,-117.8764687
"Stockton, Calif. (The Stockton Arena)",37.955989,-121.296031
"Tempe, AZ",33.4255104,-111.9400054
"Bowling Green, KY",36.9685219,-86.4808043
"Little Rock, Ark. (Jack Stephens Center)",34.7283805,-92.3404998
"Titan Gym (Fullerton, Cal",33.883022,-117.8858875
"Ogden, UT",41.223,-111.9738304
"Dahlberg Arena -- Missoula, Mont.",46.8600672,-113.9852081
"Reno Events Center -- Reno, Nev.",39.53085,-119.8124811
"Reno, Nev. (Reno Events Center)",39.53085,-119.8124811
"Sacramento, Calif. (Golden 1 Center)",38.5806415,-121.4996191
"Reese Court -- Cheney, Wash.",47.4913724,-117.5893925
"Reno, Nev.: Reno Events Center",39.53085,-119.8124811
"Atherton, CA",37.4613272,-122.197743
"San Francisco, Calif.",37.7749295,-122.4194155
"Belmont, Calif.",37.5202145,-122.2758008
"Berkeley, CA",37.8715926,-122.272747
Mandalay Bay Events Center,36.0928191,-115.1771103
THE SOUTH POINT ARENA LAS,36.0107111,-115.1782011
"Pasadena, CA",34.1477849,-118.1445155
"Pleasant Hill, CA",37.9479786,-122.0607963
"Honolulu, Hawaii (Kalani HS)",21.2786521,-157.7737534
West Field House: Santa C,36.9914111,-122.0640935
"Kaiser Permanente Arena - Santa Cruz, CA",36.9682163,-122.0231348
"Wheeling, WV",40.0639616,-80.7209149
"Winter Park, FL",28.5999998,-81.3392352
"Indiana, PA (Memorial Field House)",40.6142848,-79.1617317
"West Liberty, W.Va. (ASRC)",40.1658141,-80.6011631
Stockton Arena,37.955989,-121.296031
"Madison Square Garden, New York",40.7505045,-73.9934387
"Spokane Arena - Spokane, Washington",47.666492,-117.422068
"Honolulu, Hawaii (Bloch Arena)",21.3477037,-157.9412794
"Bloch Arena, Joint Base Pearl Harbor-Hic",21.3477037,-157.9412794
"T-Mobile Arena (Las Vegas, NV)",36.1028767,-115.1784324
"Las Vegas, Nev. (T-Mobile Arena)",36.1028767,-115.1784324
"Santa Clara, Calif. (Leavey Center)",37.3491535,-121.9351697
"Dayton, Ohio (UD Arena)",39.7356112,-84.1997159
"Richmond, KY",37.7478572,-84.2946539
"Huntsville, TX",30.7235263,-95.5507771
"Seattle, Wash. - KeyArena",47.6221,-122.353988
"Sanford Pentagon Sioux Falls, SD",43.5916282,-96.7548082
"United Center   (Chicago, IL)",41.8806908,-87.6741759
"Lahaina, Hawaii (Lahaina Civic Center)",20.9041112,-156.6844975
"Glassboro, NJ",39.7028923,-75.1118422
"Pueblo, CO",38.2544472,-104.6091409
"Saint George, UT",37.0965278,-113.5684164
"Golden, CO (Lockridge Arena)",39.7510136,-105.2225705
"Belmont, CA (Walter Gleason Gym)",37.5182754,-122.2843243
"Tacoma, WA",47.2528768,-122.4442906
"Irving, TX",32.8140177,-96.9488945
"Whittier, CA",33.9791793,-118.032844
"Forest Grove, OR",45.5198364,-123.1106631
"Orange, CA",33.7879139,-117.8531007
"St. Louis, Mo. (WU Field House)",38.6497289,-90.3146579
South Point Arena,36.0107059,-115.1751132
"Holland, MI",42.7875235,-86.1089301
"Elmhurst, IL",41.8994744,-87.9403418
"Mercer Island, WA",47.5706548,-122.2220674
"Lynden, WA",48.9465044,-122.4521073
"DeVos Fieldhouse, Hope College",42.7887273,-86.0954824
"SOUTHPOINT ARENA, LAS VEGAS, NV",36.0107111,-115.1782011
"Springfield, Ohio",39.9242266,-83.8088171
"Macon, GA",32.8406946,-83.6324022
"Auburn, AL",32.6098566,-85.4807825
"Charleston, S.C.",32.7764749,-79.9310512
Charleston. S.C,32.7764749,-79.9310512
"Rock Hill, SC -- Winthrop",34.9395142,-81.0316204
"Gulfport, MS",30.3674198,-89.0928155
"Piscataway, NJ",40.554887,-74.4642861
"Elon, NC",36.0982762,-79.5115433
"Albany, N.Y. - Times Union Center",42.6485901,-73.7549371
"Times Union Center (Albany, N.Y.)",42.6485901,-73.7549371
"Times Union Center - Albany, NY",42.6485901,-73.7549371
"Westerville, Ohio -- Rike Center",40.1301294,-82.9370677
Voekel Gymnasium,34.0989795,-117.7117707
"Laie, Hawaii",21.6482858,-157.9225549
"Beaver Falls, PA",40.7520097,-80.3192295
"Huntingdon, Pa.",40.4847959,-78.0102813
"Lake Forest, IL",42.2586342,-87.840625
"JustAGame Fieldhouse - Wis. Dells, Wis.",43.6256886,-89.7762441
"Stevens Point, WI",44.5235792,-89.574563
"Santa Cruz, Calif./Kaiser Arena",36.9682163,-122.0231348
"Bayamon, P.R./Ruben Rodriguez Coliseum",18.3947963,-66.150924
"Skibo Gymnasium - Pittsburgh, Pa.",40.4407429,-79.9413357
"David V. Wise Center - Meadville, Pa.",41.649349,-80.1449494
"Oneonta, NY",42.4528571,-75.0637746
"Annandale, NY",42.0218762,-73.9095279
"Farmington, ME",44.6704998,-70.1512169
"Amherst, MA",42.3732216,-72.5198537
"Bronx, N.Y. - The APEX Center",40.874746,-73.892992
"Bangor, Maine (Newman Gym)",44.8253264,-68.7953825
"York, PA",39.9625984,-76.727745
"Marietta, Ohio - Ban Johnson Arena",39.4145456,-81.4491067
"Arlington, Va. / Verizon Sports Arena",38.8634667,-77.0610223
"Jackson, MS",32.2987573,-90.1848103
"Winchester, VA",39.1856597,-78.1633341
"Sherman, TX",33.6356618,-96.6088805
"Portland, Ore. (Pamplin Sports Center)",45.4516164,-122.6703897
"Irving, Texas (Maher Athletic Center)",32.8462187,-96.9216682
"Georgetown, Texas",30.6332618,-97.6779842
"Sioux Center, IA",43.0797991,-96.1756935
"Lee Lohman Arena - Davenport, Iowa",41.541442,-90.5803914
"San Juan, P.R. (Coliseo Ruben)",18.3947963,-66.150924
JustAGame,43.6256886,-89.7762441
"Hartford, CT",41.7637111,-72.6850932
"TD Bank Sports Center - Hamden, Conn.",41.4142098,-72.9110904
"Sunrise, FL",26.1669711,-80.256595
"Paradise Island, Bahamas",25.0821287,-77.3134431
"XL Center  Hartford, Conn.",41.768399,-72.6769853
"Orlando, Fla. - Amway Center",28.539902,-81.383672
Germain Arena (Fort Myers),26.4404742,-81.7788469
"Estero, Fla. (Germain Arena)",26.4404742,-81.7788469
"Wichita Falls, TX",33.9137085,-98.4933873
"Maryville, MO",40.3461017,-94.8724706
"Kansas City, Mo. - Sprint Center",39.0972997,-94.5799392
"Kansas City, Mo./Municipal Auditorium",39.09787,-94.586341
"LaGrange, GA",33.0362218,-85.0322444
"Cincinnati, OH",39.1031182,-84.5120196
"Crestview Hills, KY",39.0272829,-84.5849438
"Dorough Field House - Atlanta, Ga.",33.8734804,-84.3335803
"Lexington, Va. ",37.7840208,-79.4428157
"Memphis, Tenn. (Mallory-Hyde Gymnasium)",35.1565729,-89.98957
Miami,25.7616798,-80.1917902
"Homewood, Ala. (Homewood HS)",33.4604721,-86.7900711
"Birmingham, Ala. (Bill Battle Coliseum)",33.5161592,-86.8509922
"Laie, HI",21.6482858,-157.9225549
"Hilo, HI",19.7070942,-155.0884869
"Ho`olehua, Molokai, HI",21.1675794,-157.0686307
"Lihue, Kaua`i, HI",21.9811111,-159.3711111
"Irvine, CA (CU Arena)",33.6536915,-117.8108672
"Kaiser Permanente Arena-Santa Cruz, CA",36.9682163,-122.0231348
"Misenheimer, NC",35.4848625,-80.2883904
"Shippensburg, PA",40.0506453,-77.5202647
"Orem, UT",40.2968979,-111.6946475
"Rochester, Mich. (Ath. Ctr. O'rena)",42.6740472,-83.2129533
"Naperville, Ill. (Gregory Arena)",41.7757597,-88.14332
"Parkland, Wash. - Names F",47.1447737,-122.4439789
"Fredericksburg, VA",38.3031837,-77.4605399
"Oswego, N.Y. (Max Ziel Gymnasium)",43.4462942,-76.535533
"Salem, Va. (Salem Civic Center)",37.2854268,-80.0392938
"Babson Park, MA | Staake Gymnasium",42.2993708,-71.2659951
"MSG, New York, NY",40.7505045,-73.9934387
"US Bank Arena, Cincinnat",39.0979906,-84.5044787
"US Bank Arena, Cincy",39.0979906,-84.5044787
"US Bank, Cincinnati, OH",39.1010508,-84.5115235
"Niceville, Fla. (NW Fla. State College)",30.5394163,-86.475644
"Spokane Arena, Spokane, Wash.",47.666492,-117.422068
"Sacramento, Calif. ",38.5815719,-121.4943996
"USAFA, CO",38.9983094,-104.8613176
"Christl Arena - West Point, N.Y.",41.3863864,-73.9656782
"Asheville, N.C. (U.S. Cellular Center)",35.5971794,-82.555619
"Spartanburg, S.C. (Hodge Center)",34.9957778,-81.9688331
"Asheville, N.C. (US Cellular Center)",35.5971794,-82.555619
"Georgetown, TX",30.6332618,-97.6779842
"Milwaukee, Wis. (Kern Center)",43.0466558,-87.9089499
"Marshall, Texas (Ornelas Gym)",32.5569179,-94.3764522
"Claremont, Calif. (Rains Center)",34.0989795,-117.7117707
"East Stroudsburg, PA",40.9995386,-75.1812913
"California, PA",40.0656291,-79.8917139
"Shippensburg, PA (Heiges Field House)",40.0628895,-77.524098
"Shepherdstown, WV - Butcher Center",39.4353263,-77.8115747
"Clemente Center (Melbourne, Fla.)",28.0634328,-80.622545
"Melbourne, Fla.",28.0836269,-80.6081089
"Cambridge, MA",42.3736158,-71.1097335
"Haverford, PA",40.0022406,-75.3208107
"Swarthmore, PA",39.9020565,-75.3499123
"Westwego, LA",29.9060388,-90.1422962
"Bridgewater, Mass.",41.9903519,-70.9750541
"Potsdam, NY",44.6697805,-74.9813084
"Hamburg, NY",42.7158927,-78.8294768
"Maxcy Hall (Potsdam, NY)",44.6606526,-74.9671579
"Viniar Athletic Center, Schenectady, NY",42.8186863,-73.9241333
"Scott Field House; Clinton, N.Y.",43.0541589,-75.4079774
"St. Thomas, U.S. Virgin Islands",18.3380965,-64.8940946
"MGM GRAND ARENA LAS VEGAS, NV",36.104313,-115.1685048
"Cancun, MX",21.161908,-86.8515279
"Green Bay, WI",44.519159,-88.019826
"Valparaiso, Ind. (ARC)",41.4642298,-87.0483582
"Detroit, Mich. (Joe Louis Arena)",42.3252075,-83.0515121
"Youngstown, Ohio",41.0997803,-80.6495194
"Joe Louis Arena - Detroit, MI",42.3252075,-83.0515121
"Durham, NC",35.9940329,-78.898619
"Myrtle Beach, SC",33.6890603,-78.8866943
"Chattanooga, Tenn. (The McKenzie Arena)",35.0503542,-85.3009296
"CenturyLink Center, Omaha, Nebraska",41.2624236,-95.9282394
"River Forest, IL",41.8978091,-87.8139483
Bo Ryan Court,42.7316948,-90.4882129
"Oshkosh, Wis. - Kolf Sports Center",44.0243314,-88.5522143
"Eau Claire, Wis. - Zorn Arena",44.7988839,-91.4984237
"Willimantic, Conn. (Geissler Gymnasium)",41.7218811,-72.2190193
"Boston, Mass. / Clark Athletic Gym",42.314933,-71.039318
"Scott Field House: Clinton, N.Y.",43.0541589,-75.4079774
"Concord, NH",43.2081366,-71.5375718
"Castleton, VT",43.6106223,-73.179832
"Muldoon Gymnasium (Nashua, N.H.)",42.7380942,-71.4523567
"Biddeford, Maine (Harold Alfond Forum)",43.4532443,-70.38998
"Westfield, Mass. (Woodward Center)",42.1279111,-72.7883109
"Storrs, CT",41.8084314,-72.2495231
"Fort Worth, TX",32.7554883,-97.3307658
"Salem, OR",44.9428975,-123.0350963
"La Verne, CA",34.1008426,-117.7678355
"Colorado Springs, CO (Gallogly Events)",38.8927051,-104.7986498
Wheeler Sports Center,45.305395,-122.966237
"Shreveport, La. (Gold Dom",32.4550835,-93.7467998
"Shreveport, La. (Gold Dome)",32.4809291,-93.7299013
"Billings, MT",45.7832856,-108.5006904
"Stephenville, Texas (Wisdom Gym)",32.2157364,-98.2206128
"Rip Griffin Center - Lubbock, Texas",33.5719153,-101.9317759
"San Francisco, CA",37.7749295,-122.4194155
"Palo Alto, CA",37.4418834,-122.1430195
"Anchroage, Alaska (Alaska Airlines Ctr)",61.1887817,-149.8151705
"Stan Sheriff Center - Honolulu, O'ahu",21.2942882,-157.8189039
"Las Vegas, Nev. (MGM Grand Gardeen Aren)",36.104313,-115.1685048
"Morrow, GA",33.5831662,-84.3393683
"Vadosta, GA",30.8327022,-83.2784851
"Montevallo, AL",33.1006746,-86.8641558
"Americus, GA",32.0723861,-84.2326876
"Aiken, S.C.",33.5604168,-81.7195533
"Pembroke, N.C./English E. Jones Center",34.6894587,-79.2012289
"Trustmark Arena (Montevallo, Ala.)",33.101447,-86.8616311
"Mequon, WI",43.2159232,-88.0314174
"Seward, NE",40.9078784,-97.0984927
"Ann Arbor, MI - CUAA Gymnasium",42.2748422,-83.6811775
"Ann Arbor, Mich.",42.2808256,-83.7430378
"Jacksonville, IL - Sherman Gymnasium",39.7298657,-90.2476515
"Seward, NE - Walz Arena",40.9143712,-97.0896219
"Superior, WI",46.7207737,-92.1040796
"Colchester, VT",44.5439375,-73.1479068
"Waltham, Mass. (Dana Center)",42.3834614,-71.2245972
"Daniel P. Nolan Gymnasum | Albany, N.Y.",42.6640994,-73.7856653
"Orangeburg, N.Y. (Hennessy Center)",41.0471959,-73.9505947
"Hennessy Center - Orangeburg, N.Y.",41.0471959,-73.9505947
"New London, CT",41.3556539,-72.0995209
"New London, Conn (Coast Guard Academy)",41.3737624,-72.0992548
"New London, Conn. (Coast Guard Academy)",41.3737624,-72.0992548
"Staten Island, NY - Sports & Rec Center",40.603932,-74.148769
"Staten Island, NY - Sports ' Rec Center",40.603932,-74.148769
"New London, Conn. (Coast Guard)",41.3737624,-72.0992548
"Uniontown, PA",39.900076,-79.7164326
"Norfolk Scope - Norfolk, VA",36.8532544,-76.286878
"Norfolk, Va. - Scope Arena",36.8532544,-76.286878
"Kress Center - Green Bay, Wis.",44.5299675,-87.9164501
"Richmond, VA",37.5407246,-77.4360481
"TD Arena / Charleston, S.C.",32.7854388,-79.9343716
"Plattsburgh, NY",44.6994873,-73.4529124
"Washington, D.C.",38.9071923,-77.0368707
"Ithaca, NY (Ben Light Gym)",42.421658,-76.498564
"Amherst, MA (LeFrak Gymnasium)",42.3680134,-72.5183568
"Ithaca, NY (Ben Light Gymnasium)",42.421658,-76.498564
"Baltimore, MD / Goldfarb Gym",39.3299013,-76.6205177
"Niceville, Fla. (The Arena)",30.5370313,-86.477145
"Las Vegas, NV  MGM Arena",36.104313,-115.1685048
"MGM Grand Garden Arena; Las Vegas, Nev.",36.104313,-115.1685048
"St. Thomas, U.S. Virigin Islands",18.3380965,-64.8940946
"Madison Square Garden; New York, NY",40.7505045,-73.9934387
"Quincy, Mass. (Lahue PE Center)",42.2720172,-71.0107326
"Castine, Maine",44.3888609,-68.7989582
"Columbia, MO (Mizzou Arena)",38.9324614,-92.333753
"Pittsburgh, Pa./PPG Paints Arena",40.4395932,-79.9893378
"Pittsburgh, Pa./ PPG Paints Arena",40.4395932,-79.9893378
"Logan, WV",37.8487147,-81.9934581
"Bluefield, WV",37.2698395,-81.2223195
"Philippi, WV",39.1523198,-80.0403578
"Owensboro, Ky. - Sportscenter",37.7626977,-87.1262181
"Atlantic City, NJ",39.3642834,-74.4229266
"Brooklyn, NY (Barclays Center)",40.6827836,-73.9758246
"United Center- Chicago, IL",41.8806908,-87.6741759
"Madison Square Garden, New York,NY",40.7505045,-73.9934387
"AmericanAirlines Arena (Miami, Fla.)",25.7814014,-80.186969
"Albion, MI",42.243097,-84.7530304
"Angola, IN",41.6347726,-84.9994088
"Tampa Prep.; Tampa, Florida",27.9512401,-82.4670466
"Tampa Prep.;Tampa, Florida",27.9512401,-82.4670466
"St. Louis, MO/WU Field House",38.6497289,-90.3146579
"Tampa, Fla. (Tampa Prep)",27.9512401,-82.4670466
Tampa Prep,27.9512401,-82.4670466
The Batten Center/Virginia Beach,36.8684184,-76.1859527
"Gettysburg, Pa. - Bream Gym",39.8302813,-77.2467885
"Williamsport, Pa. (Lamade Gym)",41.2441845,-76.9999047
"Charlottesville, VA",38.0293059,-78.4766781
"Baltimore, Md. - Royal Farms Arena",39.2885817,-76.6186668
"Royal Farms Arena - Baltimore, Md.",39.2885817,-76.6186668
"N. Charleston Coliseum - Charleston, SC",32.8653841,-80.0201708
"N. Charleston Coliseum, Charleston, S.C.",32.8653841,-80.0201708
"Hanover, IN",38.7142263,-85.4735707
"Parkland, WA",47.1553769,-122.4340114
"Lexington,Ky.",38.0405837,-84.5037164
"Branch Rickey Arena; Delaware, Ohio",40.2949217,-83.0664069
"Sioux Falls, S.D. (Premier Center)",43.5607088,-96.7515187
Leavey Center,37.3491535,-121.9351697
"Sioux Falls, S.D. Sanford",43.5355418,-96.74332
"Omaha, NE",41.2523634,-95.9979883
Joe Louis Arena,42.3252075,-83.0515121
"Joe Louis Arena - Detroit, Michigan",42.3252075,-83.0515121
"Salisbury, Md./Maggs PAC",38.345073,-75.6046968
Juniata,40.5001396,-78.0158977
"Baltimore, MD/Goldfarb Gym",39.3334364,-76.6208734
"Fredericksburg, Va.",38.3031837,-77.4605399
Raymond A DuFour Center,38.9424172,-76.9993099
"Raymond A DuFour Center, Washington DC",38.9424172,-76.9993099
"Hampton, VA",37.0298687,-76.3452218
"Hempstead, NY",40.7062128,-73.6187397
"Wilmington, Del.",39.7390721,-75.5397878
"Gallagher Center (Philadelphia, Pa.)",40.023379,-75.1937303
"Danville, Va. (Grant Center)",36.5968038,-79.4365275
"Rocky Mount, N.C. (Everett Gym)",36.0186234,-77.7742185
"St. Thomas, Vir Isl",18.3380965,-64.8940946
"Wells Fargo, Des Moines",41.585257,-93.625118
"Fort Myers, Fla. (Germain Arena)",26.4404742,-81.7788469
"Muhlenberg, PA",40.402297,-75.9289046
"Tampa, Fla.",27.950575,-82.4571776
"Coliseum, Richmond, VA",37.544639,-77.434448
"PPL Center (Allentown, Pa.)",40.602668,-75.472915
"Kailua, HI",21.4022222,-157.7394444
"Waukesha, Wis. (Van Male Gymnasium)",43.00479,-88.2280481
"Ericksen Center, St. Paul, Minn.",45.0340776,-93.1706834
"Stevens Point, Wis.",44.5235792,-89.574563
"Centennial Hills Rec, Las Vegas, Nev.",36.2824304,-115.2638709
Mellon Arena,40.4395932,-79.9893378
"Consol Energy, Pittsburg",40.4395932,-79.9893378
"Consol Center, Pittsburgh,",40.4395932,-79.9893378
"CONSOL, Pittsburgh",40.4395932,-79.9893378
"Consol Energy Center, Pittsburgh, PA",40.4395932,-79.9893378
"Estero, Fla. / Germain Arena",26.4404742,-81.7788469
"Pittsburgh, Pa. / CONSOL Energy Center",40.4395932,-79.9893378
"PPG Paints Arena (Pittsburgh, Pa.)",40.4395932,-79.9893378
"Marietta, OH",39.415352,-81.4548436
"Kalamazoo, MI",42.2917069,-85.5872286
"Stauffer-Wolfe Arena - N. Manchester, IN",41.0106522,-85.7590721
"Tarble Pavilion (Swarthmore, Pa.)",39.900997,-75.3535776
Germain Arena,26.4404742,-81.7788469
"West Chester, PA",39.9606643,-75.6054882
"Shepherdstown, W.Va. - Butcher Center",39.4353263,-77.8115747
"Orlando, Fla. (Amway Center)",28.539902,-81.383672
"Lawton, OK",34.6035669,-98.3959291
Oklahoma City (Eagles' Nest),35.366202,-97.686007
"Golden, Colo. (Lockridge Arena)",39.7510136,-105.2225705
"Miami, Fla. - Alumni Gymnasium",40.2788285,-74.7354358
Miami (Florida Christian School),25.730467,-80.3402404
"Ypsilanti, MI",42.2411499,-83.6129939
"Lynchburg, VA",37.4137536,-79.1422464
Physical Activities Cntr,32.3237701,-90.1796305
"Kennesaw, GA",34.0234337,-84.6154897
"Buena Vista, VA",37.7343004,-79.3539238
"Bridgewater, Va. - Nininger Hall",38.378879,-78.969386
"Frederick, Md. | BB'T Arena",39.4454817,-77.3889391
"Frederick, Md. | BB&T Arena",39.4454817,-77.3889391
"Bridgewater, VA (Nininger Hall)",38.378879,-78.969386
"Frederick, Md.",39.4142688,-77.4105409
"Moscow, ID",46.7323875,-117.000165
"Rochester, MI",42.680588,-83.1338214
"Indianapolis, Ind.",39.768403,-86.158068
"Neil Blaisdell Center Honolulu,HI",21.2999389,-157.850842
"Brougham Pavilion (Seattle, WA)",47.6512279,-122.3603456
"Lacey, Wash",47.0342629,-122.8231915
"Durango, CO",37.27528,-107.8800667
"Santa Rosa, NM",34.93867,-104.6824892
"Cameron, OK",35.1339862,-94.5346655
"Rapid City, SD",44.0805434,-103.2310149
"Canyon, Texas (First United Bank Center)",34.9810117,-101.9040547
Paul Wright Gymnasium,38.550832,-106.9207169
"San Angelo, Texas",31.4637723,-100.4370375
"The Nest -- Sacramento, Calif.",38.6076466,-121.5306434
"Reno Events Center, Reno, Nevada",39.53085,-119.8124811
"Cleveland, MS",33.7440023,-90.7248187
"Martinez Athletics Center; Tampa, FL",27.9470469,-82.469158
"Tampa,Fla.",27.950575,-82.4571776
"ICI Center - Daytona Beach, Fla.",29.1912551,-81.0467428
"Daytona Beach, Fla. - ICI Center",29.1912551,-81.0467428
"Gary, IN",41.5933696,-87.3464271
"Wilberforce, OH",39.716171,-83.8777063
"Wilson, NC",35.7212689,-77.9155395
"Ettrick, VA (Daniel Gymnasium)",37.2388915,-77.4211588
"Institute, WV Walker Convocation Center",38.3783901,-81.7685902
"Walker Convcation Center, Institute, WV",38.3783901,-81.7685902
"Richmond, VA (Barco-Stevens Hall)",37.5625916,-77.4514696
"Kinston, N.C. (Lenior CC Gymnasium)",35.2355983,-77.5720757
"Lancaster, Pa. (Mayser Center)",40.047869,-76.3185476
"Shingleton Gymnasium - Winchester, Va.",39.1660159,-78.1583388
"Springfield, Mass. (Blake Arena)",42.1046093,-72.5554201
"Fulton, MO",38.8467082,-91.9479586
"Rock Island, Ill.",41.5094771,-90.5787476
"Greenville, IL",38.8922687,-89.4131356
"Carver Center - Rock Island, Illinois",41.5066327,-90.550847
"UST/St. Paul, Minn.",44.941751,-93.1914909
"Griswold Center in Decatur, Ill.",39.8435943,-88.9734405
"Belton, Texas (Mayborn Campus Center)",31.0685507,-97.4663663
"Pittsburgh, Pa. - Skibo Gymnasium",40.4407429,-79.9413357
"Oswego, N.Y. -- Max Ziel Gymnasium",43.4462942,-76.535533
"Boston, Mass. (Jean Yawkey Ceter)",42.3403687,-71.1016439
"Jean Yawkey Center - Boston, Mass.",42.3403687,-71.1016439
"Weston, Mass. - Higgins Court",42.348327,-71.2498014
"Boston, Mass. (Tansey Gymnasium)",42.3352812,-71.0950943
"Roanoke, VA",37.2709704,-79.9414266
"Danville, VA",36.5859718,-79.3950228
"Mount Berry, GA",34.275093,-85.1832843
"Memphis, Tenn. (Mallory Gymnasium)",35.1565729,-89.98957
"Salem Civic Center -- Salem, Va.",37.2854268,-80.0392938
"Lookout Mountain, GA",34.9775757,-85.3577363
"Abilene, Texas",32.4487364,-99.7331439
"Fort Smith, AR",35.3859242,-94.3985475
"Bartlesville, Okla. (Bruin Fieldhouse)",36.732327,-95.9724842
"Albany, N.Y. (Times Union Center)",42.6485901,-73.7549371
"Trinity, CT",41.7479332,-72.6903345
"Schenectady, NY",42.8142432,-73.9395687
"Memorial Hall, Allentown, Pa.",40.5998127,-75.5092006
"Newark, NJ - The Golden Dome",40.7395937,-74.1743626
"Ashland, Va.",37.7590318,-77.4799837
"Tucson, AZ",32.2217429,-110.926479
"University of Dayton Arena, Dayton, Ohio",39.7356112,-84.1997159
"Bronx, N.Y. - Rose Hill Gym",40.862211,-73.8837651
"Mount Olive, NC",35.1965531,-78.0663788
"RL Vaughan Center-Elizabeth City,NC",36.2823635,-76.2158637
"Tuskegee, Ala.",32.430237,-85.7077266
"Carter Center, Athens, W.Va.",37.4260914,-81.0055811
"Spectrum Center- Charlotte, NC",35.2251426,-80.8392351
"Quincy, IL (Pepsi Arena)",39.9405616,-91.3855142
"Sault Ste. Marie, Mich. (Cooper Gym)",46.4989095,-84.34256
"Louisville, KY (KNIGHTS HALL)",38.2215155,-85.7051918
"Allendale, Mich. (GVSU Fieldhouse Arena)",42.9639355,-85.8889465
"Kates Gymnasium - Ashland, Ohio",40.8619296,-82.323051
"St. Louis, Mo. (Mark Twain Building)",38.7166146,-90.3085412
"Salem, Va.",37.2934681,-80.0547626
"Rocky Mount, N.C. (Everett Gym0",35.977828,-77.809056
"Henniker, NH",43.1798323,-71.8222872
"North Dartmouth, Mass.",41.640396,-70.9694555
"Plattsburgh, N.Y. (Memorial Hall)",44.6930949,-73.4648711
"Savannah, Ga. - Savannah",32.0835407,-81.0998342
Norfolk Scope Arena,36.8532544,-76.286878
"BB&T Center, Sunrise, Fla.",26.1581467,-80.3254084
"Birmingham, Ala. (Bartow Arena)",33.5022194,-86.8092712
"Honolulu, Oahu (Iolani School)",21.2860467,-157.8249168
Stan Sheriff Center - Honolulu,21.2942882,-157.8189039
"Silver Spurs Arena (Kissimmee, Fla.)",28.2989399,-81.3689867
"Blacksburg, VA",37.2295733,-80.4139393
Hodge Center,34.9957778,-81.9688331
"JMU Convocation Center, Harrisonburg, Va",38.4318774,-78.8687645
"Mitchell Center (Mobile,",30.6922565,-88.1796785
"Evansville, IN (Ford Center",37.9721356,-87.5678588
"St. Petersburg, Fla.",27.7676008,-82.6402915
"BB&T Center, Sunrise, FL",26.1581467,-80.3254084
"Verizon Center, WASHINGTON",38.8981251,-77.0208804
"BB&T Center (Sunrise, Fla.)",26.1581467,-80.3254084
"Uncasville, Conn. | Mohegan Sun Arena",41.4911501,-72.0897019
"Veterans Mem. Arena - Jacksonville, Fla.",30.325811,-81.645058
"The Lakeland Center - Lakeland, Fla.",28.0413253,-81.9630692
"Amalie Arena - Tampa, Fla.",27.9427373,-82.4517771
"Lake Buena Vista, Fla. (HP Field House)",28.3373061,-81.5572343
"Blue Cross Arena (Rochester, N.Y.)",43.1533193,-77.6106225
Huntsville AL,34.7303688,-86.5861037
"Atlanta, Ga. | Epps Gymnasium",33.792647,-84.3855879
"Baltimore, MD/Goldfarb Gy",39.3334364,-76.6208734
"King's Point, NY",40.8198231,-73.7351316
"New Haven, CT",41.308274,-72.9278835
"Orangeburg, N.Y.",41.0464858,-73.9495818
"Virginia Beach, Va.",36.8529263,-75.977985
Cregger Center,37.2978202,-80.0547572
"Salem, Va. | Cregger Center",37.2743431,-80.0185024
"Elon, N.C. - Alumni Gym",36.1032571,-79.5054235
"Allentown, PA",40.6084305,-75.4901833
"Middletown, PA",40.199814,-76.7310806
"Vienna, WV",39.3270191,-81.5484578
"Glenville, W.Va. (Waco Center)",38.9456271,-80.8263603
"Brockport, NY",43.2136713,-77.9391797
"Cortland, NY",42.6011813,-76.1804843
"Horsburgh Gymnasium - Cleveland, Ohio",41.5043413,-81.6083838
St. John Fisher College's Varsity Gym,43.115372,-77.511511
R.I.T.'s Clark Gymnasium,43.0844212,-77.6738665
U. of Rochester's Palestra,43.1305531,-77.6260033
Penn State Harrisburg,40.2042904,-76.744929
"Verizon, Washington, DC",38.9034846,-77.0410438
"Coliseo Roberto Clemente - San Juan, PR",18.4158296,-66.0755353
"Washington, DC - Verizon Center",38.8981251,-77.0208804
"Barclays Center, Brooklyn, N.Y.",40.6827836,-73.9758246
"Sprint Center - Kansas city, Mo.",39.0972997,-94.5799392
"Seoul, South Korea",37.566535,126.9779692
"Savannah, Ga.- Savannah Civic Center",32.0767215,-81.0969501
"Tuscaloosa, AL",33.2098407,-87.5691735
Lakefront Arena - New Orl,30.0301443,-90.0505073
"HP Fieldhouse (Lake Buena Vista, Fla.)",28.3373061,-81.5572343
"Duluth, GA",34.0028786,-84.1446376
"Nerney Field House, Radnor, Pa.",40.0553552,-75.3740633
"Gwynedd Valley, Pa. - Griffin Complex",40.1978454,-75.2347066
"Spokane Arena, Spokane,",47.666492,-117.422068
"Vancouver, B.C., CAN",49.2827291,-123.1207375
"Wichita, KS",37.6871761,-97.330053
"Orleans Arena (Las Vegas, NV)",36.1058151,-115.2022567
"KeyArena -- Seattle, Wash.",47.6221,-122.353988
"Univ of Phoenix Stadium, Glendale, AZ",33.5276247,-112.2625593
"Kroc Center - Chicago, IL",41.6783563,-87.6525496
Destin Realty  Emerald Coast Classic,30.38258,-86.431187
Destin Realty Emerald Coast Classic,30.38258,-86.431187
CenturyLink Center,32.465254,-93.674089
"Findlay, OH",41.04422,-83.6499321
"Houghton, MI",47.1211331,-88.5694182
"Quincy, IL",39.9356016,-91.4098726
"RENSSELAER, IN (Scharf Fieldhouse)",40.9235411,-87.1574968
"Rocky Mount, NC",35.9382103,-77.7905339
"Greensboro, NC - Greensboro Coliseum",36.058682,-79.826131
"Everett Gymnasium - Rocky Mount, N.C.",36.0186234,-77.7742185
"Waverly, IA",42.7272032,-92.4668511
"Bluffton, Ohio (Sommer Center)",40.8979688,-83.8968738
"Las Vegas, NE",36.1699412,-115.1398296
"River Falls, WI",44.8613563,-92.6238082
COLISEO RUBEN ZAYAS MONTANEZ,18.352158,-66.0058218
"Clark Gym, Rochester, NY",43.0844212,-77.6738665
"Phoenix, Ariz. (PHX Convention Center)",33.449759,-112.070973
"Phoenix, Ariz. (PHX Conve",33.449759,-112.070973
"Montgomery, AL",32.3668052,-86.2999689
"USCG Air Station Borinquen, Puerto Rico",18.4967036,-67.1314665
"Salem, VA - Salem Civic Center",37.2854268,-80.0392938
"Fredericksburg, Va. - Ron Rosner Arena",38.3021703,-77.4742587
Salem Civic Center,37.2854268,-80.0392938
"Laramie, WY",41.3113669,-105.5911007
"Wilmington, NC",34.2257255,-77.9447102
"Scope Arena - Norfolk, VA",36.8532544,-76.286878
"Dayton, Ohio - UD Arena",39.7356112,-84.1997159
"The Scope - Norfolk, Va.",36.8532544,-76.286878
"Towson, Md. / SECU Arena",39.3873866,-76.6171503
"Towson, Md. (SECU Arena)",39.3873866,-76.6171503
"Belton, TX",31.0560132,-97.464453
"Richardson, TX",32.9483335,-96.7298519
"Marshall, Texas (Ornelas Gymnasium)",32.5569179,-94.3764522
"Alpine, Texas (Gallego Center)",30.3634284,-103.6467306
"Las Vegas, Nevada (South Point Arena)",36.0107111,-115.1782011
"Solheim Arena, LeTourneau University",32.465893,-94.7264594
"Ban Johnson Arena; Marietta, Ohio",39.4145456,-81.4491067
"Miami, Fl.",25.7616798,-80.1917902
"Pittsford,NY: St. John Fisher College",43.115372,-77.511511
"TD Garden, Boston, Mass.",42.366198,-71.062146
The Palestra (Philadelphia),39.9513911,-75.1887032
"Mercedes-Benz Arena, Shanghai, China",31.1892515,121.493103
"The Palestra (Philadelphia, Pa.)",39.9513911,-75.1887032
"Estero, FL",26.438136,-81.8067523
"Alma, MI",43.3789199,-84.6597274
"New Wilmington, Pa.-Buzz Ridl Gymnasium",41.1177914,-80.3287268
"Riverdale, NY",40.8940853,-73.9109977
"Poughkeepsie, NY",41.7003713,-73.9209701
"Scharf Fieldhouse (Rensselaer, Ind.)",40.9235411,-87.1574968
"Alumni Arena; North Canton, OH",43.0001109,-78.7811679
Alumni Arena,43.0001109,-78.7811679
Owensboro< KY (Sportscenter),37.7626977,-87.1262181
"Kings Point, NY",40.8198231,-73.7351316
"Brockport, NY: Vlogianitis Gym",43.2180901,-77.9381066
"Timken Gymnasium; Wooster, Ohio",40.8110501,-81.9336187
"Baltimore, Md - Royal Farms Arena",39.2885817,-76.6186668
"Maitland, FL",28.6277767,-81.3631244
"Rock Island, IL",41.5094771,-90.5787476
"Wooster, Ohio",40.8050565,-81.935143
"Katy, Texas (Merrell Center)",29.7803319,-95.8327276
"Las Vegas, Nevada (Orleans Arena)",36.1058151,-115.2022567
"Hartford, Conn. (XL Center)",41.768399,-72.6769853
"Las Vegas, Nev. (Cox Pavilion)",36.104244,-115.143247
"Brookings, SD",44.3113573,-96.7983877
"Indianapolis, Ind. (India",39.831696,-86.2406
"Norfolk, Va. (Scope Arena",36.8532544,-76.286878
"Cazenovia, NY",42.9300668,-75.8526915
"Amherst, Mass. (LeFrak Gymnasium)",42.3680134,-72.5183568
"Madison, N.J.",40.7598227,-74.417097
"Kennewick, WA",46.2112458,-119.1372338
"Denton, TX (The Super Pit)",33.2086227,-97.1540986
"Col. Ruben Zayas Montanez, Trujillo Alto",18.352158,-66.0058218
"Col.Ruben Zayas Montanez, Trujillo Alto",18.352158,-66.0058218
"Kailua-Kona, HI",19.639994,-155.9969261
"Karges Center, River Falls, Wis.",44.8536958,-92.6259831
"Guaynabo, P.R.",18.3615548,-66.1110682
"Tyler, Texas (Herrington Patriot Center)",32.3147466,-95.2492653
"Stan Sheriff Center (Honolulu, HI)",21.2942882,-157.8189039
"Stan Sheriff Center, Honolulu, HI",21.2942882,-157.8189039
"St. Louis, Mo./Scottrade Center",38.6268402,-90.2026783
"Staten Island, N.Y.",40.5795317,-74.1502007
"St. Louis, Mo. (Scottrade Center)",38.6268402,-90.2026783
"United Center, Chicago, Ill.",41.8806908,-87.6741759
"St. Louis, Mo. // Scottrade Center",38.6268402,-90.2026783
"Scottrade Center: St. Louis, Mo.",38.6268402,-90.2026783
"Verizon Center (Washington, DC)",38.8981251,-77.0208804
"Toledo, OH",41.6639383,-83.555212
"Kent, Ohio - M.A.C. Center",41.1482226,-81.3439854
"Joe Louis Arena (Detroit, Mich.)",42.3252075,-83.0515121
"Lake Buena Vista, Fla. (H",28.3936186,-81.5386842
"Wells Fargo Center (Philadelphia, Pa.)",39.9012015,-75.1719795
"Loretto, PA",40.5031263,-78.630296
"Sioux Falls, S.D. Sanford PREMIER Center",43.5607088,-96.7515187
"Bayamon, P.R.",18.389396,-66.1653224
"Romeoville, IL (Neil Carey Arena)",41.6050591,-88.0821178
"Miami Shores, FL (Health ' Sports Ctr)",25.8791813,-80.1995743
Tiffin OH,41.1144992,-83.1779746
"New York, NY - MGS",40.7414585,-73.996464
"Albany, NY - Times Union Center",42.6485901,-73.7549371
"Pepsi Center, Denver, Colo",39.74866,-105.00771
"Anchorage, AK - Alaska Airlines Center",61.1887817,-149.8151705
"THE SOUTH POINT ARENA LAS VEGAS, NV",36.0107111,-115.1782011
Golden 1 Center,38.5806415,-121.4996191
"Milwaukee, Wis. / Harris Bradley Center",43.0436456,-87.9172433
"Madison Square Garden, New York, N.Y.",40.7505045,-73.9934387
"The Arena - Niceville, FL",30.5370313,-86.477145
"Wells Fargo Arena - Des Moines, IA",41.5926623,-93.6210651
"Cortland, N.Y.",42.6011813,-76.1804843
"Cortland, NY (Corey Gym)",42.5990713,-76.180872
"Ellis Davis, Dallas, TX",32.6373547,-96.8422444
"Normal, IL",40.5142026,-88.9906312
"DeKalb, IL",41.9294736,-88.7503647
"Charleston Civic Ctr, Charleston, W.Va.",38.3559034,-81.6400212
"Buffalo,NY",42.8864468,-78.8783689
"Long Center, Scranton, Pa.",41.4051814,-75.656497
"Wayne, N.J. (Recreation Center)",40.9563847,-74.2594274
"Crestview Hills, Ky. - Co",39.0243341,-84.5603245
"Cincinnati, Ohio",39.1031182,-84.5120196
"Lebanon, Tenn. (Dallas Floyd Gymnasium)",36.2032673,-86.2992404
"York, Pa. - Charles Wolf Gymnasium",39.9467464,-76.7281509
"Ashland, VA / Crenshaw Gym",37.7629854,-77.4786146
"Bluefield, W.V.a",37.2698395,-81.2223195
"Bluefield, W.Va.",37.2698395,-81.2223195
"Saratoga Springs, NY",43.0831301,-73.7845651
"Quincy, MA",42.2528772,-71.0022705
"Keene, N.H. (Spaulding Gym)",42.9258839,-72.2813447
"Poughkeepsie, NY (AFC)",41.029273,-73.790825
"Altoona, PA",40.5186809,-78.3947359
"Bethany, WV",40.205627,-80.5567384
"St. Norbert, WI",44.44485,-88.0663767
"Richmond, IN",39.8289369,-84.8902382
"Kachel Gym in Whitewater, Wis.",42.8430878,-88.7462426
"Philips Gymnasium; Oberlin, OH",41.2978567,-82.2230422
University of Dayton Arena,39.7393,-84.1799675
"KFC Yum! Center, Louisville,KY",38.2577834,-85.7538323
"Tulsa, OK (BOK Center)",36.152766,-95.996416
"Kansas City, MO (Sprint Center)",39.0972997,-94.5799392
"Willimantic, Conn.",41.7106543,-72.2081338
"Phoenox, Ariz. (PHX Convention Center)",33.449759,-112.070973
"The Sports Center; Galloway, NJ",39.4902894,-74.5314967
"Oneonta, NY - Lambros Arena",42.4573534,-75.0728868
"Germain Arena (Fort Myers, Fla.)",26.4404742,-81.7788469
"Philippi, WV (Rex Pyles Arena)",39.1571906,-80.0512952
AmericanAirlines Arena,25.7814014,-80.186969
"New Wilmington, Pa.-Buzz Ridl Classic",41.119859,-80.332286
"Selinsgrove, Pa. - Houts Gymnasium",40.7976619,-76.8709989
"Selinsgrove, Pa - Houts Gymnasium",40.7976619,-76.8709989
"Insalaco Arena, Marywood University",41.4351319,-75.6324234
"Selinsgrove, Pa.",40.7989735,-76.8621935
"Wilkes-Barre, Pa.",41.2459149,-75.8813075
"Ocdan Center: Daytona Beach, Fla.",29.22841,-81.011154
"Portales, NM",34.1861922,-103.3343978
"Wildcat Center, Denver, Colo.",39.7469199,-104.9063885
"Pottsville, Pa. (Martz Hall)",40.6826626,-76.2125136
"Wheeling, W. Va.",40.0639616,-80.7209149
"Wheeling, WV (McDonough Center)",40.074193,-80.689385
"Indiana, Pa. (Kovalchick Complex)",40.6124254,-79.159922
"Playa del Carmen, MEX",20.6295586,-87.0738851
"Palestra, Phily, PA",39.9513911,-75.1887032
"Philadelphia, Pa. (The Palestra)",39.9513911,-75.1887032
"Orange, CA (Hutton Sports Center)",33.7936633,-117.8517479
"Midland, MI",43.6155825,-84.2472116
"Nashville, Tenn.",36.1626638,-86.7816016
"Katy, TX",29.7857853,-95.8243956
"Manhattan, KS",39.1836082,-96.5716694
"Carrollton, GA",33.5801103,-85.0766113
"Northwood, FL",26.7349982,-80.0550128
"Coliseo Ruben Rodriguez, Puerto Rico",18.3947963,-66.150924
"JustAGame, Wisconsin Dells, Wis.",43.6256886,-89.7762441
"Albany, N.Y.",42.6525793,-73.7562317
"Nolan Gymnasium, Albany, N.Y.",42.6640994,-73.7856653
"Rome, Ga.",34.257038,-85.1646726
"Jackson, Tenn.",35.6145169,-88.8139469
"Bill Harria Arena, Birmingham, Ala.",33.4947227,-86.8741364
"Marshall, MN",44.448423,-95.7911916
"Riviera Maya, MX (Hard Rock Resort)",20.506925,-87.21539
"Riviera Maya, Mexico (Hard Rock Resort)",20.506925,-87.21539
The HTC Center - The HTC Center,33.7980888,-79.0155722
"Rock Hill, SC -- Winthrop Coliseum",34.9480739,-81.0149026
"St. Joseph, MO",39.7674578,-94.846681
"Bolivar, MO",37.6144838,-93.4104749
"Joplin, MO",37.0842271,-94.513281
"Bolivar, Mo. (Meyer Sports Center)",37.6026708,-93.4111969
"Joplin, Mo.-Leggett & Platt Athl. Center",37.0938853,-94.4602639
"Bolivar, Mo. - Meyer Sports Complex",37.6026708,-93.4111969
"Kansas City, Mo. - SE Fieldhouse",39.0107073,-94.545862
"St. Charles, Mo. - Hyland Arena",38.7866853,-90.5016536
"Fairfield, CT",41.1408363,-73.2612615
"Lewisburg, PA",40.9645293,-76.8844101
"Charlotte, N.C. (Brayboy Gym)",35.2433189,-80.8527215
"Winston-Salem, N.C.",36.0998596,-80.244216
"Winston-Salem, N.C. (C.E. Gaines Center)",36.0892424,-80.2229135
"Greenwood, S.C. (Horne Arena)",34.2002826,-82.165036
"Case Gym ""The Roof"" - Boston, Mass.",42.3504997,-71.1053991
"Case Gym The Roof - Boston, Mass.",42.3542903,-71.1205462
"Washington, D.C. - UDC Sp",38.944677,-77.0656299
"West Long Branch, NJ",40.2903891,-74.0176381
"Ypsilanti, Mich. (Convocation Center)",42.2542182,-83.6473247
"Tupelo, MS",34.2576066,-88.7033859
"2016 SEC Men's Tournament-Nashville,TN",36.1591736,-86.7784959
"Carrier Dome, Syracuse, N.Y.",43.0362269,-76.1363161
"Lynchburg, Va. (Vines Center)",37.348916,-79.1810641
"Honolulu, O'ahu (Stan Sheriff Center)",21.2942882,-157.8189039
"Honolulu, O'ahu (Stan Sherriff Center)",21.2942882,-157.8189039
"The Orleans Arena (Las Vegas, Nevada)",36.1058151,-115.2022567
"Anchorage, AK (Alasak Airlines Center)",61.1887817,-149.8151705
"Charlotte Amalie, St. Thomas, U.S.V.I.",18.3419004,-64.9307007
"Aberdeen, SD",45.4646985,-98.4864829
"Honolulu, Hawaii (Kilani HS)",21.2786521,-157.7737534
"Waukesha, Wis.",43.0116784,-88.2314813
Grant Gymnasium,38.5878076,-90.3454945
"Lexington, Ky.",38.0405837,-84.5037164
"Defiance, Ohio - Karl H. Weaner Center",41.2966243,-84.3583836
"St. Louis, Mo. (Grant Gymnasium)",38.5878076,-90.3454945
"Beverly, MA",42.5584283,-70.880049
"Presque Isle, ME",46.681153,-68.0158614
"Norton, MA",41.9667703,-71.1869963
"Mount Pleasant, Mich. (McGuirk Arena)",43.5814964,-84.7740605
"Portland Expo - Portland, ME",43.6560085,-70.2770927
Case Gym The Roof - Bosto,42.3504997,-71.1053991
"Westfield, Mass. Woodward Center",42.1279111,-72.7883109
"Miami, Fl. - Immaculata-LaSalle H.S.",25.7429634,-80.2130539
"Ettrick, Va.",37.2401503,-77.4299836
"HP Fieldhouse, Lake Buena Vista, Fla.)",28.3373061,-81.5572343
"Annapolis, Md. (Alumni Hall)",38.9845155,-76.4877359
Roberto Clemente,41.9026705,-87.6865708
"Decatur, GA",33.7748275,-84.2963123
"Atlanta, GA -- Woodruff PE Ctr.",33.7933119,-84.3258545
"Nashville, Tenn. (Moore Gymnasium)",36.1445375,-86.807313
"Scandlon Gymnasium, Wilkes-Barre, PA",41.2499673,-75.8792853
"Babson Park, MA - Staake Gymnasium",42.2993708,-71.2659951
"PPG Paints Arena: Pittsburgh, Pa.",40.4395932,-79.9893378
"Ramstein AFB, Germany",49.4400412,7.597129
"AT&T Stadium, North Texas",32.7472844,-97.0944939
"East Rutherford, N.J. (IZOD Center)",40.8115986,-74.067578
"Merrell Center -- Katy, Texas",29.7803319,-95.8327276
"Danbury, CT",41.394817,-73.4540111
"Biddeford, ME",43.4925843,-70.4533844
"Williamsburg, VA",37.2707022,-76.7074571
"Washington, D.C. - UDC Sports Complex",38.9459608,-77.0657105
"Aquinas Hall Gymnasium - Sparkill, NY",41.0423558,-73.9359461
"WEST CHESTER, Pa. (HOLLINGER FIELDHOUSE)",39.9516309,-75.6021271
"Waltham, Mass. (Dana",42.3665707,-71.2310156
"Nyack, NY",41.0906519,-73.9179146
SNHU Fieldhouse (Manchest,43.0407729,-71.4531836
"Syracuse, N.Y. - Ted Grant Court",43.0497018,-76.0855042
"Miami, Fla. (Alumni Gymnasium)",40.2788285,-74.7354358
"Lexington, Va. 
",37.7840208,-79.4428157
"Grand Junction, CO",39.0638705,-108.5506486
"Stubblefield Center, Fort Smith, Ark.",35.3807916,-94.3712592
"Caldwell, Idaho",43.6629384,-116.6873596
"Orange, Calif.",33.7879139,-117.8531007
"Orange, Calif./ Santiago Canyon College",33.794566,-117.766756
"United Center    Chicago, IL",41.8806908,-87.6741759
"Charlotte, N.C. (Time Warner Cable Arena",35.2251426,-80.8392351
"Syracuse, N.Y. (Carrier Dome)",43.0362269,-76.1363161
"Anaheim, Calif.",33.8365932,-117.9143012
"Auburn Hills, Mich. (The Palace)",42.696885,-83.2457929
"St. Cloud, MN",45.5579451,-94.1632404
"Bemidji, MN",47.4875361,-94.8858492
"Marshall, MN (R/A Facility)",44.4540077,-95.76183
"Romeoville, Ill. (Neil Carey Arena)",41.6050591,-88.0821178
"Atlantis. Paradise Island, Bahamas",25.084653,-77.32349
"Bankers Life Fieldhouse,Indianapolis, IN",39.7639301,-86.1554641
"University of Dayton Arena; Dayton, Ohio",39.7356112,-84.1997159
"Washington, D.C. / Verizon Center",38.8981251,-77.0208804
"Sprint Center; Kansas City, Mo.",39.0972997,-94.5799392
"Bridgestone Arena, Nashville",36.1591736,-86.7784959
"Anchorage, AK (Alaska Airlines Center)",61.1887817,-149.8151705
"Birmingham, Ala - Legacy Arena",33.5239475,-86.8127501
"Rochester, N.Y. -- L. Alexander Palestra",43.2010277,-77.639438
"Daytona, Fla. (Ocean Center)",29.22841,-81.011154
"Carrollton, GA (The Coliseum)",33.5759757,-85.1038312
"Birmingham, Ala.",33.5206608,-86.80249
"Elmhurst, Ill. - R.A. Faganel Hall",41.8992691,-87.946134
"Conway, Ark. (Grove Gymnasium)",35.0730768,-92.4686291
"Somers, WI",42.6402973,-87.9103563
"Warrensburg, Mo. - UCM Multipurpose Bldg",38.7573354,-93.7440436
"San Juan, PR (Roberto Clemente Coliseum)",18.4158296,-66.0755353
"Jackson, Miss. (Mississippi Coliseum)",32.3001314,-90.1719577
"San Juan, PR (Coliseo Roberto Clemente)",18.4158296,-66.0755353
"Hattiesburg, MS",31.3271189,-89.2903392
"Cookeville, Tenn. / Eblen Center",36.1783618,-85.5095064
"Jefferson City, TN",36.122311,-83.492396
"Savannah, GA",32.0835407,-81.0998342
"Newberry, SC",34.2745833,-81.6187178
"Greenwood, SC",34.1954001,-82.1617883
"Horne Arena, Greenwood, S.C.",34.2002826,-82.165036
"Memorial Hall - Dahlonega, Ga.",34.5288198,-83.9834377
"Misenheimer, N.C. (Merner Gym)",35.4848472,-80.2798584
"Lahaina, Hawaii | Lahaina Civic Center",20.9041112,-156.6844975
Sprint Center,39.0972997,-94.5799392
"Pittsburg, KS",37.410884,-94.70496
"Rensselaer, IN",40.9367045,-87.1508562
"Springfield, MO/O'Reilly Event Center",37.2183433,-93.2847316
"Sault Ste. Marie, MI",46.4952996,-84.3453169
"Ft. Lauderdale, Fla.",26.1224386,-80.1373174
"Aquinas Hall (Sparkill, NY",41.0422627,-73.9358903
"Sparkill, N.Y. - Aquinas Hall",41.0422627,-73.9358903
Aquinas Hall Gymnasium -,41.0423558,-73.9359461
"Sparkill, N.Y. - Aquinas Hall Gymnasium",41.0423558,-73.9359461
"Waverly, Iowa (Levick Arena)",42.7283537,-92.4836606
"Hart Center, Worcester, Mass.",42.234829,-71.8062758
"Stan Sheriff Center (Honolulu, Hawaii)",21.2942882,-157.8189039
"Rimrock Auto Arena - Billings, Montana",45.8003724,-108.4775763
"St. Thomas, U.S. Virign Islands",18.3380965,-64.8940946
"Winchester, Va. - Shingleton Gymnasium",39.1660159,-78.1583388
"Salem, Va. - C. Homer Bast Center",37.2968892,-80.0564504
"Manhattan, NY (Coles Sports Center)",40.7285009,-73.9931061
"Montclair, NJ - Panzer Athetic Center",40.8585038,-74.2000441
"Municipal Auditorium - Nashville, Tenn.",36.1674077,-86.7817328
"Adrian, MI",41.8975471,-84.0371659
"Demorest, GA",34.565098,-83.5451724
"DeVos Fieldhouse; Holland, Mich.",42.7887273,-86.0954824
"Madison, N.J. - Baldwin Gymnasium",40.7603633,-74.4289843
"Bowling Green, Ohio (Stroh Center)",41.375459,-83.626208
"Bowling Green, Ohio (Stro",41.3912983,-83.6486143
"Washington, PA",40.17396,-80.2461714
"NRG Stadium, Houston, TX",29.6847219,-95.4107074
"Rensselaer, NY",42.6425794,-73.742898
"North Adams, MA",42.700915,-73.1087148
"Frederick, MD",39.4142688,-77.4105409
"Nashville, TN (Municipal Auditorium)",36.1674077,-86.7817328
"Keuka Park, NY",42.6151357,-77.0919056
Buffalo State Sports Arena,42.9345778,-78.8860167
"Sioux Falls, IA",42.4999942,-96.4003069
"Point Lookout, Mo. (Keeter Gymnasium)",36.6200313,-93.2397223
"Uniter Center     Chicago, IL",41.8806908,-87.6741759
"Grand Island, NE",40.9263957,-98.3420118
"Las Vegas, Nev",36.1699412,-115.1398296
"Sanford PREMIER Center, Sioux Falls, SD",43.5607088,-96.7515187
"Sioux Falls, S.D. (Sanford Pentagon)",43.5916282,-96.7548082
"LAS VEGAS,NV  MGM GRAND GARDEN ARENA",36.104313,-115.1685048
"Moda Center, Portland, Ore.",45.5315651,-122.6668423
"Springfield, Mass. - Butova Gymnasium",42.112853,-72.557144
"Philadelphia, Pa. - Campus Center Gym",39.9538926,-75.197159
"Rio Rancho, N.M. (Santa Ana Star Center)",35.309015,-106.686603
Santa Ana Star Center,35.309015,-106.686603
"Fogelman Arena, N.O., LA",29.939013,-90.1208204
Merrell Center - Katy Texas,29.7803319,-95.8327276
"Salem, VA - Bast Gymnasium",37.2968892,-80.0564504
Nyack NY,41.0906519,-73.9179146
"Wilmington, DE",39.7390721,-75.5397878
"Clark Gyn, Rochester, NY",43.1231147,-77.624972
"Jamaica, NY",40.702677,-73.7889689
"Brooklyn, NY - West Quad Center",40.6310471,-73.9544428
"Harrisburg, Pa.",40.2731911,-76.8867008
"First Niagara Center: Buffalo, NY",42.875004,-78.876521
"Aston, Pa. - The Mirenda Center",39.8749735,-75.4426009
"Jersey City, N.J./Yanitelli",40.7277258,-74.073102
"Norfolk, Va. (Scope Arena)",36.8532544,-76.286878
"Bennington, VT",42.8781345,-73.1967741
"Rutland, VT",43.6106237,-72.9726065
Mountaineer Athl. Center,36.2113373,-81.6865032
East Campus Arena,42.7322317,-73.6675438
"New London, Conn",41.3556539,-72.0995209
BankTrust Arena,37.6833635,-97.3320351
"Owensboro, KY (KWC SportsCenter)",37.7626977,-87.1262181
"Collier Arena - Hanover, Ind.",38.7192502,-85.4623681
"Millis Center - High Point, N.C.",35.9631832,-80.0108878
"Jon Huntsman Center (Salt Lake City, UT)",40.7620609,-111.8388029
"CenturyLink Center (Bossier City, La.)",32.465254,-93.674089
"New Orleans, La. - Lakefront Arena",30.0301443,-90.0505073
"Missoula, MT  Dahlberg Arena",46.8600672,-113.9852081
"Window Rock, Ariz.",35.680573,-109.0525929
"Tuba City, Ariz.",36.1349928,-111.2398625
"Casper, WY",42.866632,-106.313081
"St. Joseph, Mo.",39.7674578,-94.846681
"St. Joseph, MO (MWSU Fieldhouse)",39.7598942,-94.7845282
MWSU Fieldhouse,39.7598942,-94.7845282
"Kansas City, Mo. (Municipal Auditorium)",39.09787,-94.586341
"MWSU Fieldhouse-St. Joseph, Mo.",39.7598942,-94.7845282
Knights Hall,38.2215155,-85.7051918
"UPR Bayamon, Puerto Rico",18.3705811,-66.1437571
Roberto Clemente Coliseum - Puerto Rico,18.4158296,-66.0755353
"Newark, N.J. (Prudential Center)",40.7335424,-74.1710255
"Indianapolis, Ind. / Bankers Life FHouse",39.7639301,-86.1554641
"Cleveland, OH (Quicken Lo",41.4964797,-81.6882129
"Whitewater, Wis. (Kachel Gym)",42.8430878,-88.7462426
CAPITAL CENTER,43.201424,-71.534655
"BOK Center, Tulas",36.152766,-95.996416
"CenturyLink Center, Omaha, Neb.",41.2624236,-95.9282394
"Durant, OK (Bloomer Sullivan Arena)",34.0067333,-96.3736678
"Edmond, Okla. - Hamilton Field House",35.6601208,-97.4715323
"Scope Arena, Norfolk, VA",36.8532544,-76.286878
"Mohegan Sun Arena, Uncasville, Conn.",41.4911501,-72.0897019
"Dearborn, MI",42.3222599,-83.1763145
"King Arena; Wheaton, Ill.",41.8714154,-88.0967889
"DeVos Gym; Palos Heights, Ill.",41.6595231,-87.7796384
DeVos Fieldhouse; Holland; Mich.,42.7887273,-86.0954824
"Stillwater, OK",36.1156071,-97.0583681
"Lubbock, TX",33.5778631,-101.8551665
"Bloch Arena - Pearl Harbor, HI",21.3477037,-157.9412794
"Elmira, N.Y. -- Speidel Gymnasium",42.0965327,-76.815607
"Elmira, N.Y.- Speidel Gymnasium",42.0965327,-76.815607
"Univ. Circle, OH",41.5091257,-81.6089873
"Cleveland, Ohio - Horsbur",41.5204283,-81.6576079
"Beaver Falls, Pa.",40.7520097,-80.3192295
Mountaineer Athl. Center (SVC),42.8677544,-73.2185286
Costello Athletic,42.6553218,-71.3243687
"Lowell, MA",42.6334247,-71.3161718
"Seattle, WA (KeyArena)",47.6221,-122.353988
"Atlanta, Ga. - Epps Gymnasium",33.7515658,-84.4112315
"Dothan, Ala. (Dothan Civic Center)",31.2248898,-85.3902273
"Newberry, S.C. (Eleazer Arena)",34.2861075,-81.6219227
"Florence, SC",34.1954331,-79.7625625
"Mayaguez, P.R.",18.2013452,-67.1451549
"Harrogate, Tenn.",36.5823046,-83.6568579
"Florence, S.C./Smith University Center",34.1885949,-79.6539216
"Florence, SC (Smith University Center)",34.1885949,-79.6539216
"Mount Olive, N.C. (Kornegay Arena)",35.2062336,-78.0713442
"Hickory, N.C. (Shuford Gymnasium)",35.741036,-81.3284223
"Chicagp, Ill. | United Center",41.8806285,-87.6740482
"Palestra, Philadelphia",39.9513911,-75.1887032
"New York, N.Y. (Madison Square Garden)",40.7505045,-73.9934387
"Pike Creek, DE",39.7309451,-75.704099
"Worcester, Mass.",42.2625932,-71.8022934
"Caldwell, N.J.-Newman Center",40.8323391,-74.271576
"Portland, ME",43.661471,-70.2553259
"Plymouth, N.H.",43.7570196,-71.6881528
"Indiana, PA (Kovlachick Complex)",40.6124254,-79.159922
"Troy, NY",42.7284117,-73.6917851
"Bridgewater, MA",41.9903519,-70.9750541
"Waterville, Maine (Wadsworth Gymnasium)",44.5682287,-69.6583929
"Concord, N.H. (Crocker Center - NHTI)",43.2247489,-71.5310745
"Concord, N.H.",43.2081366,-71.5375718
"Southaven, Miss.",34.9918587,-90.0022958
"Potsdam, NY (Alumni Gymnasium)",44.6656424,-74.9999533
"Smithfield, RI (Chace Athletic Center)",41.9211855,-71.5394146
Destin Realty Emerald Coast Classic Cham,30.38706,-86.413109
"Tacoma, Washington",47.2528768,-122.4442906
"Tacoma, Wash. (Olson Gymnasium)",47.1453532,-122.4440668
"Chicago, Ill. | United Center",41.8806285,-87.6740482
"Savannah, Ga. - Savannh Civic Center",32.0767215,-81.0969501
"San Juan, P.R. (Col. Ruben Zayas)",18.352158,-66.0058218
"South Point Arena - Las Vegas, NV",36.0107111,-115.1782011
"Frostburg, Md.",39.6581424,-78.928357
"Bayamon, Puerto Rico (Col",18.4655394,-66.1057355
"Salem, VA - Salem Civic C",37.2854268,-80.0392938
"Whittier, Calif. (GAC)",33.9787932,-118.0322842
Mount. Athletic Center,45.4034048,-122.2818487
"Pittsburgh, Pa. / PPG Paints Arena",40.4395932,-79.9893378
"Conway, AR",35.0886963,-92.4421011
"Las Vegas, Nevada Orleans Arena",36.1058151,-115.2022567
"Selland Arena, Fresno",36.7329771,-119.7826715
"Fort Collins, CO",40.5852602,-105.084423
"Denver, Colo. (Pepsi Center)",39.74866,-105.00771
"Las Vegas, Nev. (Thomas ' Mack Center)",36.1049006,-115.1441925
"Las Vegas, Nev. (Thomas &",36.1452839,-115.143337
"Throggs Neck, NY",40.818399,-73.8213213
Kidera Gymnasium - Nazareth College,43.1013041,-77.5188768
"Henrietta, NY - Clark Gymnasium",43.0844212,-77.6738665
Seaver Center,34.0169567,-118.2887703
"Dubuque, IA",42.5005583,-90.6645718
"Worcester, Mass. - Kneller Gymnasium",42.251072,-71.823493
"Las Vegas, NV - Orleans Arena",36.1058151,-115.2022567
"Las Vegas, Nev. - Orleans Arena",36.1058151,-115.2022567
"N. Manchester, IN",41.0006005,-85.768597
"Urpsrung Gymnasium: Berea, Ohio",41.3719903,-81.847562
"Hanover, Ind. (Collier Arena)",38.7192502,-85.4623681
"Sewanee, TN",35.2031373,-85.9210899
"Birmingham, Ala. (Bill Battle Coliseum",33.5161592,-86.8509922
"Pembroke, NC",34.6801626,-79.1950373
"Laurinburg, NC",34.7740494,-79.4628248
"Albany, NY (Daniel",42.6525793,-73.7562317
"Hubbell Gym (Bridgeport, Conn.)",41.1640453,-73.188094
"Butova Gymnasium (Springfield, Mass.)",42.112853,-72.557144
"Elizabeth City, NC",36.2946008,-76.2510461
"Ettrick,VA",37.2401503,-77.4299836
"Mount Olive, N.C.",35.1965531,-78.0663788
Doolittle Community Center Las Vegas,36.1952818,-115.1554891
Doolitlle Community Center,36.1952818,-115.1554891
"Orange, Calif. / Santiago Canyon College",33.794566,-117.766756
"Jersey City, N.J./Yanitelli Center",40.7277258,-74.073102
"West Hartford, Conn.",41.7620842,-72.7420151
"Halenbeck Hall, St. Cloud",45.5480155,-94.1523907
"Painesville, OH",41.7244885,-81.245657
"Cedarville, OH",39.7442268,-83.8085372
"McKenzie, TN",36.1325616,-88.5186636
"Jackson, TN",35.6145169,-88.8139469
"St. Charles, MO",38.7881062,-90.4974359
"LeFrak Gymnasium (Amherst, Mass.)",42.3680134,-72.5183568
"Macon, Ga. -- CGTC Gym at Ballard Hudson",32.8190808,-83.6579405
"Mitchell, SD",43.7094283,-98.0297992
"Spearfish, SD",44.4908172,-103.8593697
"Easton, Mass. -",42.0245442,-71.1286594
"Eau Claire, WI - Zorn Arena",44.7988839,-91.4984237
Clemente Center,28.063344,-80.6225871
Mertz Mortorelli Gymnasium,46.717658,-92.0878849
"Carver Center; Rock Island, Ill.",41.5066327,-90.550847
"Memorial Fieldhouse (Tacoma, Wash.)",47.2588931,-122.4816525
"Dartmouth, Mass. (Tripp Athletic)",41.6238628,-71.0065889
"Dartmouth, Mass. (Tripp Athletic Center)",41.6238628,-71.0065889
"Westminster, MD",39.5753791,-76.9958149
"Bayamon, Puerto Rico",18.389396,-66.1653224
"Norton, Mass.-Emerson Gymnasium",41.9680101,-71.1851943
"New York, N.Y. - Cole Sports Center",40.7285009,-73.9931061
"Bridgeport, Conn. (Webster Bank Arena)",41.1732434,-73.1870019
"Webster Bank Arena, Bridgeport, Conn.",41.1732434,-73.1870019
"Oxford, OH",39.5069974,-84.745231
"USS Midway, San Diego",32.7137398,-117.1751265
"Petco Park (San Diego, Calif.)",32.7076563,-117.1569043
"Stan Sheriff Center - Honolulu, HI",21.2942882,-157.8189039
"N.O. Arena, New Orleans,",29.9490351,-90.0820568
"Alamosa, CO",37.4694491,-105.8700214
"San Marcos, Calif. ",33.1433723,-117.1661449
"HP Fieldhouse (Lake Buena Vista, Fla)",28.3373061,-81.5572343
"Las Vegas,NV(South Point Arena)",36.0107111,-115.1782011
"Insalaco Arena, Marywood",41.4351319,-75.6324234
COMPLEJO DEPORTIVOUPRB,18.3722714,-66.1440219
"Miami Shores, FL",25.8631515,-80.1928253
"Wingate, NC",34.9843176,-80.4492319
Bluefield College - Dome Gymnasium,37.2460628,-81.2447345
"Miami Shores, Fla.",25.8631515,-80.1928253
"Fairmont, WV (Joe Retton Arena)",39.4857867,-80.1630335
"Stoltz Sports Center, Dubuque, Iowa",42.497838,-90.6939669
"Collegeville, PA",40.1856597,-75.451571
South Point Arena (Las Ve,36.0107111,-115.1782011
"St. George, UT",37.0965278,-113.5684164
"Laie, HI (Cannon Activities Center)",21.6412355,-157.923146
NIU Convocation Center,41.9352122,-88.7856583
"New Orleans, La. (Devlin Fieldhouse)",29.939013,-90.1208204
"Christl Arena - West Point, NY",41.3863864,-73.9656782
"Lake Wales, FL",27.9014133,-81.5859099
"Miami, Fl ",25.7616798,-80.1917902
"Orleans, Arena, Las Vegas, NV",36.1058151,-115.2022567
"Bridgeport, Conn-Hubbell Gym",41.1640453,-73.188094
"Old Westbury, N.Y.",40.7887113,-73.5995717
"Old Westbury, N.Y. (Recreation Hall)",40.8111622,-73.6011477
"Washington, DC - DuFour Center",38.9424172,-76.9993099
"Washington, D.C. - DuFour Center",38.9424172,-76.9993099
"Intrust Bank, Wichita",37.686233,-97.3384976
"Sewanee, Tenn. (Juhan Gymnasium)",35.20518,-85.9176605
"Reno, Nev.; Reno Events Center",39.53085,-119.8124811
"Bayamon, PR",18.389396,-66.1653224
"San Juan, Puerto Rico",18.4655394,-66.1057355
"Ft Worth, TX",32.7554883,-97.3307658
"Edinburg, TX",26.3017374,-98.1633432
"New Orleans, La., Lakefront Arena",30.0301443,-90.0505073
"Kingsville, TX",27.5158689,-97.856109
"Kingsville, TX (Hampton Inn Court)",27.4950815,-97.8465274
"Claremore, Okla. (Claremore Expo Center)",36.3138088,-95.629202
"Carlisle, Pa.",40.2010241,-77.2002745
"Honolulu, Hawaii (Stan Sheriff Center)",21.2942882,-157.8189039
"John Long Center, Scranton, Pa.",41.4055412,-75.6569784
"Worcester, MA (Laska",42.2655324,-71.7857706
"Laska Gymnasium - Worcester, Mass.",42.2947143,-71.8289631
"Worcester, Mass. (Laska Gymnasium)",42.2947143,-71.8289631
"Univ. of West Florida - Pensacola, Fla.",30.5469345,-87.2160218
"Institute, W.Va. (Walker Center)",38.3783901,-81.7685902
"Atlanis, Pardise Island, Bahamas",25.084653,-77.32349
Eckerd College,27.715886,-82.68816
"Wells Fargo Center, Philly",39.9012015,-75.1719795
"Municipal, Nashville, TN",36.1674077,-86.7817328
"Harrisburg, PA",40.2731911,-76.8867008
"West Point, N.Y. (Christl Arena)",41.3863864,-73.9656782
"Laredo, TX",27.5305671,-99.4803241
"South Euclid, OH",41.5231076,-81.5184553
"Erie, Pa. (Gary Miller Court)",42.1282445,-80.0865882
"Cancun, Mexico (Hard Rock Riviera Maya)",20.509008,-87.2120314
"Honda Center(Anaheim, Calif.)",33.8078476,-117.8764687
"Murfreesboro, TN",35.8456213,-86.39027
"Norton, Mass. (Emerson Gy",41.9667877,-71.1771973
"Statesboro, GA",32.4487876,-81.7831674
"Thousand Oaks, Calif. (Gilbert Arena)",34.226017,-118.8781091
"Atlanta, GA - Woodruff PE Center",33.7933119,-84.3258545
"Minneapolis, MN",44.977753,-93.2650108
DuFour Center,38.9424172,-76.9993099
"Utica, NY",43.100903,-75.232664
"Hamilton, NY",42.8270136,-75.5446238
"Pensacola, FL (UWF",30.5469345,-87.2160218
"West Palm Beach, Fla.",26.7153424,-80.0533746
"Charlotte, N.C.",35.2270869,-80.8431267
"Charleston Civic Ctr., Charleston, W.Va.",38.3559034,-81.6400212
Shepherdstown WV - Butcher Center,39.4353263,-77.8115747
"Walker Convcation, Institute, WV",38.3783901,-81.7685902
"Fredericksburg, Va. - Rosner Arena",37.671905,-77.459985
"Williamsport, Pa. - Lamade Gym",41.2441845,-76.9999047
"Toyota Center (Kennewick, Wash.)",46.2196928,-119.2168522
"Wheaton, Ill. - Lee Pfund Classic",41.86833,-88.099622
"Big Rapids, MI",43.6980782,-85.4836557
"Hillsdale, MI",41.9200472,-84.6305101
"Tiffin, Ohio",41.1144992,-83.1779746
"Greenville, Ill. (H.J. Long Gymnasium)",38.8932575,-89.4079079
"Worcester, Mass. (Kneller Gymnasium)",42.251072,-71.823493
"The Sports Center: Galloway, NJ",39.4902894,-74.5314967
"West Liberty, W.Va. (ASRC",40.1658141,-80.6011631
"Edmond, OK",35.6528323,-97.4780954
"Weatherford, Okla. (Pioneer Cellular EC)",35.5258757,-98.706553
Massari Arena,38.3094449,-104.5756539
"Las Vegas, NV (South Point Arena)",36.0107111,-115.1782011
"Chareleston Civic Ctr. Charleston, W.Va.",38.3559034,-81.6400212
"Warrensburg, MO (UCM Multipurpose Bldg)",38.7573354,-93.7440436
"Camden, NJ",39.9259463,-75.1196199
"San Antonio, Texas (Trinity University)",29.4618444,-98.4831622
"Garden Grove, CA",33.7742692,-117.9379952
"Whitworth Fieldhouse; Spokane, Wash.",47.7548728,-117.4178623
"Whitworth Fieldhouse: Spokane, Wash.",47.7548728,-117.4178623
"Purchase, N.Y. (Kennedy Gym)",41.0334846,-73.7165649
Manning ' Napier Varsity Gym,43.115372,-77.511511
"Ashland, OR",42.1945758,-122.7094767
"Dallas, Pa.",41.3361911,-75.9632546
"Anaheim Convention Center (Anaheim, Ca.)",33.8006719,-117.9208732
"Wooster, Ohio (Timken Gymnasium)",40.8110501,-81.9336187
"Kerrville, TX (SU Event Center)",30.0086834,-99.1122043
"Phoenix Sports Center - Green Bay, Wis.",44.5299675,-87.9164501
"Menomonie, Wis. Johnson Fieldhouse",44.8695479,-91.9277882
"SOUTHPOINT ARENA, LAS VEG",36.0107111,-115.1782011
"DuFour Center; Washington, D.C.",38.9424172,-76.9993099
"Catholic University - Washington, D.C.",38.9368811,-76.998692
"Bruin Fieldhouse (Bartlesville, Okla.)",36.732327,-95.9724842
Charleston Civic Center Coliseum,38.3559034,-81.6400212
"Broken Arrow, Okla.",36.060949,-95.7974526
"Lake Erie, OH",42.0668852,-81.3399414
"Amherst, NY",42.9790067,-78.792272
"Las Vegas, Nev. (Doolittle Center)",36.1952818,-115.1554891
"Hickory, NC",35.7344538,-81.3444573
"Greenville, SC",34.8526176,-82.3940104
"Mars Hill, N.C.",35.8264981,-82.5492999
"Greenville, S.C. (Timmons Arena)",34.9179345,-82.437289
"Bristol, TN",36.5951059,-82.1887444
"Greenville, S.C.",34.8526176,-82.3940104
"Greeneville, Tenn.",36.1631574,-82.8309861
Millis Center,35.9631832,-80.0108878
"San Antonio, Texas (Webster Gymnasium)",29.4595228,-98.4835938
"San Antonio, Texas (Trinity Univ.)",29.4618444,-98.4831622
"Defiance, Ohio  -- Weaner Center",41.2966243,-84.3583836
"Fort Smith, Ark. (Stubblefield Center)",35.3807916,-94.3712592
Anderson Center,40.0939927,-85.6798361
"Franciscan Univ. - Steubenville, Ohio",40.3772094,-80.6244016
"Steubenville, OH",40.3697905,-80.6339638
"Banner Elk, NC",36.1631817,-81.8715019
"Beckley, W.Va.",37.7781702,-81.1881557
"Salem, WV T. Edward Davis Gym",39.288908,-80.571055
"T  Edward Davis Gym, Salem, WV",39.288908,-80.571055
"Commerce, TX",33.2470567,-95.8999656
"Greemville, S.C. (Timmons Arena)",34.9178927,-82.4375282
"Tahlequah, Okla. (NSU Event Center)",35.9267504,-94.9676493
"Alterowitz Gymnasium: Billings, MT",45.7973975,-108.5178669
"Brougham Pavilion: Seattle, Wash.",47.6512279,-122.3603456
"Charleston, WV - Charleston Civic Center",38.3559034,-81.6400212
"N.Charleston Coliseum - Charleston, S.C.",32.8653841,-80.0201708
"Highland Heights,",41.5519954,-81.4784522
Belk Arena,35.4992686,-80.8403689
"Tigerville, SC (Hayes Gymnasium)",35.0695126,-82.3730502
"Bluefield, VA",37.252617,-81.2712105
"Franklin Springs, GA",34.2848284,-83.1443161
"Due West, SC",34.3334469,-82.387902
"Charlotte, NC (Time Warner Cable)",35.2065921,-80.8623775
"Charlotte, NC (Spectrum Center)",35.2251426,-80.8392351
"Walz Arena Seward, NE",40.9143712,-97.0896219
"Sherman, Texas (Hughey Gym)",33.646247,-96.5987331
"Milton, Mass. (Katz Gym)",39.3343251,-74.5090859
"Stubblefield Center,",35.3807916,-94.3712592
"Oakland City, IN",38.3386591,-87.3450132
"Lakewood, CO",39.7047095,-105.0813734
"Winona Lake, IN",41.2272668,-85.8219345
"Austin, Texas (RCC)",30.2543786,-97.6806323
"Austin, Texas, RCC)",30.2543786,-97.6806323
"Paragould, AR",36.0584021,-90.4973286
Crowley's Ridge College,36.066437,-90.584504
"MOCC Winona Lake, IN",41.2283943,-85.8119559
CCU Event Center,39.7144284,-105.0954668
"Tulsa, Okla. (UMAC)",36.0641918,-95.8694283
"Terre Haute, IN",39.4667034,-87.4139092
"Stevens Point, Wis. - Bennett Court",44.5294468,-89.5713776
"Seguin, Texas (Memorial Gymnasium)",29.5749011,-97.9830614
"Tyler, Texas",32.3512601,-95.3010624
"Tyler, TX (Patriot Center",32.3147466,-95.2492653
"Longview, Texas (Solheim Arena)",32.465893,-94.7264594
"Hays, Kan. (Gross Memorial Coliseum)",38.8717824,-99.3484057
"Sioux Falls, SD (Stewart Center)",43.5303701,-96.7391964
"Tigerville, SC",35.0699768,-82.3690411
"Hartsville, SC",34.3740431,-80.0734005
"Sun Dome Kissimmee, FL",28.0589856,-82.406487
"XL Center  Hartford, Conn",41.768399,-72.6769853
"Plainview, TX",34.1847936,-101.7068417
"Boiling Springs, NC",35.254292,-81.6670407
Memorial Gym,36.1445375,-86.807313
"Wilmore, KY",37.8620226,-84.6616105
"Jacksonville, Ill.",39.733936,-90.2290098
"Russellville, AR (Tucker Coliseum)",35.2951563,-93.1324092
"Bartlevsille, Okla. (Bruin Fieldhouse)",36.732327,-95.9724842
"Bethany, Okla. (Sawyer Center)",35.5119328,-97.6259289
"Jessieville, AR",34.7005516,-93.0626303
Kingsville Hampton Inn Court,27.4950815,-97.8465274
"Lancaster, Texas",32.5920798,-96.7561082
"Lancaster, Texas (The Valley)",32.6248556,-96.763705
Trinity University (Webster Gymnasium),29.4618444,-98.4831622
"Mercedez-Benz Arena, Shanghai, China",31.1892515,121.493103
"Atlanta, GA  Philips Arena",33.7572891,-84.3963244
"Atlanta, GA -- Woodruff PE Center",33.7933119,-84.3258545
"Maryvile, TN",35.7564719,-83.9704593
"Jefferson City, Tenn. (Holt Fieldhouse)",36.1215905,-83.4899055
"Columbus, Ga. (Lumpkin Center)",32.5044661,-84.9402125
"Gaffney, SC",35.0717945,-81.6498195
"Concord, NC",35.4087517,-80.579511
"Wingate, N.C.",34.9843176,-80.4492319
"Belmont, NC (Wheeler Center)",35.2608199,-81.0393941
"Bristol, Tenn. (Student Center Complex)",36.585376,-82.15938
"Misenheimer, NC (Merner Gym)",35.4848472,-80.2798584
"Misenheimer, NC (Merner Gym_",35.4848472,-80.2798584
"Vallejo, CA",38.1040864,-122.2566367
"Pamplin Sports Center, Portland, Ore.)",45.4516164,-122.6703897
"Portland, Ore.",45.5230622,-122.6764815
"Dunbar, WI",45.6507923,-88.1715105
"Lansing, MI",42.732535,-84.5555347
"Ankeny, IA",41.7317884,-93.6001278
"Grand Rapids, Mich.",42.9633599,-85.6680863
"Aldrich Athletic Center Wyoming, MI",42.9194672,-85.6913848
"Dahlonega, GA",34.5261465,-83.9843953
"Pueblo, Colo. (Massari Arena)",38.3094449,-104.5756539
"Callan Athletic Center: Cedarville, OH",39.7512544,-83.8133913
"Superior, Wis.",46.7207737,-92.1040796
"Dickinson, ND",46.8791756,-102.7896242
Sanford Pentagon Sioux Fa,43.5916282,-96.7548082
"Wilson, N.C.",35.7212689,-77.9155395
"Wilson Gymnasium: Wilson, N.C.",35.7368003,-77.9117497
"Wilson Gymnasium | Wilson, N.C.",35.7351078,-77.9162702
"Pomona, NJ",39.4665221,-74.5482393
"Orleans Arena  (Las Vegas, Nev.)",36.1058151,-115.2022567
Sanford Pentagon Sioux Falls SD,43.5916282,-96.7548082
"Sioux Falls, S.D./Sanford Pentagon",43.5916282,-96.7548082
"St. Cloud, Minn.",45.5579451,-94.1632404
"St. Cloud, Minn. (Halenbeck Hall)",45.5480155,-94.1523907
"Caldwell, ID",43.6629384,-116.6873596
"Carver Gym - Bellingham, WA",48.7344365,-122.4875602
"Caldwell, Idaho (J.A. Albertson Ctr.)",43.6525776,-116.6744818
"Berea, KY",37.568694,-84.2963223
"Bartlesville, Okla. (Brui",36.7327408,-95.973097
"Walla Walla, WA",46.0645809,-118.3430208
"Kent, WA (ShoWare Center)",47.38702,-122.2398599
"Tacoma, Wash.",47.2528768,-122.4442906
"Bronxville, NY",40.9381544,-73.8320784
"Potsdam, N.Y. - Jerry Welsh Gymnasium",44.6643102,-74.9761059
"Kansas City, Mo. -- Municipal Auditorium",39.09787,-94.586341
"San Juan, Puerto Rico | UPR Rio Piedras",18.4028091,-66.0500407
"Scottrade Center, St. Lou",38.6268402,-90.2026783
"Rex Pyles Arena; Philippi, WV",39.1571906,-80.0512952
"Quincy, Ill. (Pepsi",39.951082,-91.397494
"Quincy, Illinois",39.9356016,-91.4098726
"Lakewood,Colo.(CCU Events Center)",39.7144284,-105.0954668
"San Angelo, Texas (Junell Center)",31.4370339,-100.4579934
"Dallas, Texas (Burg Center)",32.7090629,-96.9454882
Golden Gymnasium,32.7168014,-117.2517116
"Monmouth, Ore. - New PE Building",44.8523702,-123.2413673
"Fresno, Calif. (FPU Events Center)",36.8295419,-119.865014
"Honda Center, Anaheim, Calif.",33.8078476,-117.8764687
"Garden City, N.Y.",40.7267682,-73.6342954
"San Juan, Puerto Rico | UPR-Rio Piedras",18.3894791,-66.0404057
"Warner University (Lake Wales, FL)",27.826324,-81.599965
Las Vegas (Orleans Areana),36.1058151,-115.2022567
"Livonia, Mich. (Activities Center)",42.3963148,-83.3624475
"Rochester Hills, MI",42.6583661,-83.1499322
"Oskaloosa, IA",41.2916728,-92.6493595
"King Center Rapid City, SD",44.0729344,-103.2071879
"Ellendale, ND",46.0027502,-98.5270458
"Ankeny,IA",41.7317884,-93.6001278
"Circleville, Ohio (Maxwell Center)",39.6132156,-82.905021
"Minneapolis, Minn. (Clark-Danielson Gym)",44.9682335,-93.2613999
Penn State Fayette - Main Campus,39.9461131,-79.6586188
"Young Harris, GA",34.9331453,-83.8471223
"Univ. of West Florida- Pensacola, Fla.",30.5469345,-87.2160218
"Bartlesville, Okla.",36.7473114,-95.9808179
"San Antonio, Texas",29.4241219,-98.4936282
"Alva, Okla. (Percefull Fieldhouse)",36.7956735,-98.6676822
"Cresson,  PA",40.4597938,-78.5916837
"New Rochelle, NY",40.9114882,-73.7823549
